id,name,country,time_zone,lat,lng
1,Château-Arnoux—St-Auban,FR,Europe/Paris,44.08179,6.001625
2,Château-Arnoux—St-Auban,FR,Europe/Paris,44.0615651,5.9973734
3,Château-Arnoux Mairie,FR,Europe/Paris,44.063863,6.011248
4,Digne-les-Bains,FR,Europe/Paris,44.35,6.35
6,Digne-les-Bains,FR,Europe/Paris,44.08871013,6.222982407
7,La Crau,FR,Europe/Paris,43.1449352,6.0687663
8,Aire-sur-l’Adour,FR,Europe/Paris,43.703854,-0.258269
9,Cagnes-sur-Mer,FR,Europe/Paris,43.65813,7.14864
10,Menton,FR,Europe/Paris,43.776486,7.504349
11,Menton,FR,Europe/Paris,43.774444,7.4933
12,Menton—Garavan,FR,Europe/Paris,43.785202,7.517297
18,Vievola,FR,Europe/Paris,44.1125561,7.5627976
19,Mandelieu-la-Napoule,FR,Europe/Paris,43.523903,6.941313
23,Decazeville,FR,Europe/Paris,44.55,2.25
24,Decazeville Centre,FR,Europe/Paris,44.561434,2.255896
25,Viviez—Decazeville,FR,Europe/Paris,44.5555678,2.2182582
26,Decazeville Fontvergne,FR,Europe/Paris,44.55563534,2.263741493
27,St-Sever Calvados,FR,Europe/Paris,48.833333,-1.033333
28,St-Sever Centre,FR,Europe/Paris,48.839517,-1.049283
29,St-Sever Calvados,FR,Europe/Paris,48.843608,-1.0516979
30,Vire,FR,Europe/Paris,48.83897,-0.88928
31,Vire Centre,FR,Europe/Paris,48.837638,-0.880538
32,Vire,FR,Europe/Paris,48.846329,-0.882884
33,Marans,FR,Europe/Paris,46.3,-1
34,Marans Centre,FR,Europe/Paris,46.290815,-0.979212
35,Marans,FR,Europe/Paris,46.30433,-1.00127
36,Uzerche,FR,Europe/Paris,45.4407088,1.5702735
38,Dijon Ville,FR,Europe/Paris,47.32337,5.027208
40,Pontrieux,FR,Europe/Paris,48.7,-3.166667
41,Pontrieux Halte,FR,Europe/Paris,48.6980361,-3.1644959
42,Pontrieux,FR,Europe/Paris,48.7056437,-3.1574281
43,Auboué,FR,Europe/Paris,49.216163,5.9714608
44,Périgueux,FR,Europe/Paris,45.187408,0.707879
45,Besançon Viotte,FR,Europe/Paris,47.247019,6.022003
47,Douarnenez Office de Tourisme,FR,Europe/Paris,48.09336269,-4.33037281
50,Concarneau,FR,Europe/Paris,47.866667,-3.916667
51,Concarneau Port,FR,Europe/Paris,47.867055,-3.927593
52,Concarneau,FR,Europe/Paris,47.87767079,-3.920531273
55,Aboncourt,FR,Europe/Paris,49.266667,6.35
56,Aiton—Bourgneuf,FR,Europe/Paris,45.566667,6.25
57,Colomiers,FR,Europe/Paris,43.616667,1.35
58,Colomiers,FR,Europe/Paris,43.603734,1.334221
59,Colomiers Lycée International,FR,Europe/Paris,43.6163055,1.3141157
60,Labège,FR,Europe/Paris,43.533333,1.533333
61,Labège Innopole,FR,Europe/Paris,43.5473613,1.5129784
62,Labège Village,FR,Europe/Paris,43.5305367,1.5329207
63,Azay-le-Rideau Mairie,FR,Europe/Paris,47.266667,0.466667
64,Albas,FR,Europe/Paris,44.466667,1.233333
65,Abancourt,FR,Europe/Paris,49.6852237,1.7743058
66,Lunel,FR,Europe/Paris,43.683333,4.133333
67,Lunel-Viel,FR,Europe/Paris,43.6811729,4.0937398
68,Lunel,FR,Europe/Paris,43.679392,4.131086
72,Moirans,FR,Europe/Paris,45.322185,5.581915
73,Arc-et-Senans,FR,Europe/Paris,47.0303516,5.7767843
74,Accolay,FR,Europe/Paris,47.666667,3.716667
76,Dole Ville,FR,Europe/Paris,47.096084,5.488105
77,Dax,FR,Europe/Paris,43.720472,-1.050301
80,Rezé,FR,Europe/Paris,47.2,-1.566667
82,Rezé—Pont-Rousseau,FR,Europe/Paris,47.1932425,-1.5495445
83,Cherbourg,FR,Europe/Paris,49.633505,-1.621515
84,Angers St-Laud,FR,Europe/Paris,47.464647,-0.55682
85,Saumur,FR,Europe/Paris,47.269,-0.07136
87,Cérences Centre,FR,Europe/Paris,48.91686,-1.437824
89,Reims,FR,Europe/Paris,49.25,4.033333
90,Reims Maison Blanche,FR,Europe/Paris,49.2336853,4.0224927
91,Champagne-Ardenne TGV,FR,Europe/Paris,49.214806,3.994632
92,Reims Ville,FR,Europe/Paris,49.258978,4.024435
93,Laval,FR,Europe/Paris,48.076206,-0.760907
94,Accous,FR,Europe/Paris,42.983333,-0.6
95,Achiet,FR,Europe/Paris,50.1317525,2.780168
96,Louverné,FR,Europe/Paris,48.133333,-0.7
97,Louverné,FR,Europe/Paris,48.1088564,-0.7144109
98,Louverné Centre,FR,Europe/Paris,48.12305356,-0.7199049
99,Mayenne,FR,Europe/Paris,48.3,-0.616667
100,Mayenne,FR,Europe/Paris,48.30645522,-0.620588064
101,Mayenne Centre,FR,Europe/Paris,48.29950404,-0.611339808
104,Arnage,FR,Europe/Paris,47.933333,0.183333
105,Arnage,FR,Europe/Paris,47.9285663,0.1898826
106,Arnage Centre,FR,Europe/Paris,47.937288,0.163801
107,Carnac,FR,Europe/Paris,47.583333,-3.083333
108,Plouharnel—Carnac,FR,Europe/Paris,47.6042943,-3.1184482
109,Les Sables-Blancs,FR,Europe/Paris,47.5755984,-3.1324467
110,Carnac,FR,Europe/Paris,47.58455897,-3.082609177
111,St-Pierre-Quiberon,FR,Europe/Paris,47.516667,-3.133333
112,L’Isthme,FR,Europe/Paris,47.5465051,-3.133699
113,St-Pierre-Quiberon,FR,Europe/Paris,47.5210574,-3.138905
114,Metz,FR,Europe/Paris,49.109545,6.176593
115,Forbach,FR,Europe/Paris,49.183333,6.9
117,Forbach,FR,Europe/Paris,49.1892278,6.9013184
118,Sarreguemines,FR,Europe/Paris,49.10995,7.067471
119,Sarreguemines Poste,FR,Europe/Paris,49.110155,7.054923
121,Sarreguemines,FR,Europe/Paris,49.1073357,7.0686398
122,Dunkerque,FR,Europe/Paris,51.03047,2.368961
123,Lille-Flandres,FR,Europe/Paris,50.636577,3.06987
124,Haubourdin,FR,Europe/Paris,50.6070495,2.990153
125,Tourcoing,FR,Europe/Paris,50.71683,3.16804
126,Nomain,FR,Europe/Paris,50.5,3.25
127,Nomain-Ouvignies,FR,Europe/Paris,50.5060755,3.2308175
128,Nomain,FR,Europe/Paris,50.5023744,3.2063499
130,Croix—Wasquehal,FR,Europe/Paris,50.6785574,3.1380315
131,Croix-l’Allumette,FR,Europe/Paris,50.6872009,3.1516591
132,Roubaix,FR,Europe/Paris,50.69561,3.16348
136,Jeumont,FR,Europe/Paris,50.3,4.1
137,Jeumont,FR,Europe/Paris,50.29606,4.08645
139,Bellegarde-sur-Valserine,FR,Europe/Paris,46.107874,5.824213
140,Bellegarde-sur-Valserine,FR,Europe/Paris,46.109425,5.823483
141,Bellegarde-sur-Valserine Lycée Musinens,FR,Europe/Paris,46.115336,5.794132
143,Briouze,FR,Europe/Paris,48.7018622,-0.3682036
148,Calais Ville,FR,Europe/Paris,50.952613,1.848185
149,Boulogne-sur-Mer Ville,FR,Europe/Paris,50.7157,1.60964
150,Allenc,FR,Europe/Paris,44.541296,3.6638926
151,Pau,FR,Europe/Paris,43.291762,-0.369626
152,Hendaye,FR,Europe/Paris,43.353132,-1.781724
153,Strasbourg,FR,Europe/Paris,48.584967,7.734584
154,Mertzwiller,FR,Europe/Paris,48.866667,7.683333
155,Mertzwiller,FR,Europe/Paris,48.872013,7.6781895
157,Colmar,FR,Europe/Paris,48.073201,7.346967
158,Mulhouse,FR,Europe/Paris,47.742224,7.342396
159,St-Louis (Haut Rhin),FR,Europe/Paris,47.583333,7.566667
160,St-Louis La-Chaussée,FR,Europe/Paris,47.6094781,7.5312095
161,St-Louis,FR,Europe/Paris,47.5906094,7.5559882
163,Thann,FR,Europe/Paris,47.8088208,7.1069795
164,Thann—St-Jacques,FR,Europe/Paris,47.8133155,7.0938473
165,Givors Canal,FR,Europe/Paris,45.5957662,4.7725754
166,Aspach-le-Haut,FR,Europe/Paris,47.65,7.233333
167,Aspach-le-Haut,FR,Europe/Paris,47.769396,7.142379
168,Aspach-le-Bas,FR,Europe/Paris,47.759832,7.152375
171,Avignon Centre,FR,Europe/Paris,43.9419,4.805281
172,Le Mans,FR,Europe/Paris,47.995034,0.19014
173,Joué-lès-Tours Berthelot,FR,Europe/Paris,47.35,0.666667
174,Eu,FR,Europe/Paris,50.05,1.416667
175,Eu-la-Mouillette,FR,Europe/Paris,50.04890671,1.425368786
176,Eu,FR,Europe/Paris,50.0541988,1.416837
177,Alleyras,FR,Europe/Paris,44.919217,3.673517
178,Le Havre,FR,Europe/Paris,49.492996,0.125677
179,Harfleur,FR,Europe/Paris,49.506596,0.198269
180,Harfleur-Halte,FR,Europe/Paris,49.5059181,0.192085
181,Harfleur,FR,Europe/Paris,49.5136336,0.1989828
182,Montivilliers,FR,Europe/Paris,49.55,0.2
184,Montivilliers,FR,Europe/Paris,49.5429758,0.189426
186,Dieppe,FR,Europe/Paris,49.921788,1.081133
187,Fontainebleau—Avon,FR,Europe/Paris,48.416371,2.72634
188,Péronne,FR,Europe/Paris,50,2.65
189,Péronne Centre,FR,Europe/Paris,49.934997,2.938987
190,Péronne la Chapelette,FR,Europe/Paris,49.924488,2.933359
191,Albi Ville,FR,Europe/Paris,43.92238,2.137958
192,Orléans Centre,FR,Europe/Paris,47.90796,1.904666
194,Vendôme,FR,Europe/Paris,47.8021498,1.0678728
195,Fréjus,FR,Europe/Paris,43.432032,6.732941
196,Fontenay-le-Comte,FR,Europe/Paris,46.46785958,-0.809592605
197,Acheux-Franleu,FR,Europe/Paris,50.0826021,1.6574207
199,St-Hilaire-de-Riez,FR,Europe/Paris,46.7166736,-1.9496838
200,St-Hilaire-de-Riez Centre,FR,Europe/Paris,46.718728,-1.944618
201,La Clayette—Baudemont,FR,Europe/Paris,46.2881469,4.2984195
203,Tours,FR,Europe/Paris,47.389781,0.693703
204,Cambrai,FR,Europe/Paris,50.17662,3.24118
205,Aiguebelle,FR,Europe/Paris,45.5437225,6.3067175
207,Agen,FR,Europe/Paris,44.208311,0.620932
208,Ervy-le-Châtel Halles,FR,Europe/Paris,48.033333,3.916667
209,Fays-la-Chapelle,FR,Europe/Paris,48.133333,4.016667
210,Agonac,FR,Europe/Paris,45.2865966,0.7486706
211,Limoges Bénédictins,FR,Europe/Paris,45.836089,1.267356
212,Modane,FR,Europe/Paris,45.193365,6.658161
213,Agos,FR,Europe/Paris,43.033333,-0.066667
214,Argenton-sur-Creuse,FR,Europe/Paris,46.583333,1.516667
215,Argenton-sur-Creuse,FR,Europe/Paris,46.592248,1.518305
216,Argenton-sur-Creuse Gare Routière,FR,Europe/Paris,46.587009,1.503158
217,Roye,FR,Europe/Paris,49.69805005,2.789722681
218,Agay,FR,Europe/Paris,43.4313701,6.8564997
223,Versailles-Chantiers,FR,Europe/Paris,48.7958264,2.1358827
224,Villeneuve-au-Chemin,FR,Europe/Paris,48.082895,3.844281
230,Salvagnac,FR,Europe/Paris,43.916667,1.7
232,Maussac,FR,Europe/Paris,45.483333,2.15
233,Aix-en-Provence TGV,FR,Europe/Paris,43.455237,5.317534
234,Moustéru,FR,Europe/Paris,48.5074512,-3.2435052
239,Aillevillers,FR,Europe/Paris,47.9138876,6.3372988
241,Ailly-sur-Noye,FR,Europe/Paris,49.75448,2.36419
246,Ailly-sur-Somme,FR,Europe/Paris,49.92838,2.20059
249,Aigues-Vives (Gard),FR,Europe/Paris,43.733333,4.166667
252,Aiserey,FR,Europe/Paris,47.170501,5.1582447
264,Vicq-sur-Breuilh,FR,Europe/Paris,45.645578,1.384455
265,St-Hilaire-Bonneval,FR,Europe/Paris,45.716667,1.366667
266,Boisseuil,FR,Europe/Paris,45.766667,1.316667
267,Azay-sur-Indre,FR,Europe/Paris,47.2,0.95
286,Mouroux,FR,Europe/Paris,48.8139949,3.0423421
292,Alet-les-Bains,FR,Europe/Paris,42.9974445,2.2518325
293,Allassac,FR,Europe/Paris,45.2589385,1.4731471
295,Albens,FR,Europe/Paris,45.785946,5.9483418
302,Pierre-Buffière Ville,FR,Europe/Paris,45.7,1.35
303,Aix la Marsalouse,FR,Europe/Paris,45.61420627,2.398447394
304,La Ferté-sous-Jouarre,FR,Europe/Paris,48.950741,3.125577
311,Merten,FR,Europe/Paris,49.25,6.666667
313,La Ferté-Milon,FR,Europe/Paris,49.1797269,3.1207223
314,Neuilly-St-Front,FR,Europe/Paris,49.1871466,3.2710249
315,Oulchy-Breny,FR,Europe/Paris,49.1876743,3.3524421
316,Albi Madeleine,FR,Europe/Paris,43.938011,2.1409629
317,Ambérieu,FR,Europe/Paris,45.954008,5.342388
322,Auxon Église,FR,Europe/Paris,48.092235,3.923863
323,Rehainviller,FR,Europe/Paris,48.566667,6.466667
324,St-Pierremont,FR,Europe/Paris,48.433333,6.583333
325,Leintrey,FR,Europe/Paris,48.616667,6.733333
326,Amenoncourt,FR,Europe/Paris,48.626383,6.78441
327,Magnac Bourg,FR,Europe/Paris,45.61815,1.43097
328,Aigues-Mortes,FR,Europe/Paris,43.5709008,4.1912102
329,Meuzac,FR,Europe/Paris,45.55,1.433333
335,Orville,FR,Europe/Paris,47.55,5.2
336,Torcenay,FR,Europe/Paris,47.813425,5.470142
337,Rosoy-sur-Amance,FR,Europe/Paris,47.833333,5.533333
338,Bize,FR,Europe/Paris,47.833333,5.633333
339,Anrosey,FR,Europe/Paris,47.833333,5.666667
340,Pisseloup,FR,Europe/Paris,47.833333,5.733333
341,Bétoncourt-sur-Mance,FR,Europe/Paris,47.830622,5.759083
342,Vernois-sur-Mance,FR,Europe/Paris,47.851944,5.794042
343,Andelot,FR,Europe/Paris,46.8594671,5.923584
344,Angers,FR,Europe/Paris,47.466667,-0.55
345,Angers Maître École,FR,Europe/Paris,47.4670899,-0.531894
346,Blondefontaine,FR,Europe/Paris,47.883333,5.866667
347,Angoulême,FR,Europe/Paris,45.653572,0.164608
348,Raincourt,FR,Europe/Paris,47.85987923,5.885946751
349,Gévigney,FR,Europe/Paris,47.8,5.933333
350,Baulay,FR,Europe/Paris,47.783333,6.016667
351,Amoncourt,FR,Europe/Paris,47.733333,6.066667
352,Chaux-les-Port,FR,Europe/Paris,47.713834,6.03311
353,Charmoille,FR,Europe/Paris,47.666667,6.1
354,Pusey,FR,Europe/Paris,47.65,6.133333
355,Martigny-les-Gerbonvaux,FR,Europe/Paris,48.45,5.8
356,Autreville,FR,Europe/Paris,48.483333,5.85
358,Mont-le-Vignoble,FR,Europe/Paris,48.616667,5.85
359,Hestroff,FR,Europe/Paris,49.266667,6.433333
360,Vaudreching,FR,Europe/Paris,49.284483,6.523714
361,Alzing,FR,Europe/Paris,49.283333,6.55
363,Villette,FR,Europe/Paris,49.474443,5.541571
364,Colmey—Flabeuville,FR,Europe/Paris,49.457202,5.555477
365,Montigny-sur-Chiers,FR,Europe/Paris,49.483333,5.666667
366,Lexy,FR,Europe/Paris,49.5,5.733333
367,Ingolsheim,FR,Europe/Paris,48.97402,7.935905
372,Hertzing,FR,Europe/Paris,48.683333,6.95
373,Bébing,FR,Europe/Paris,48.7,7
376,Drouilly,FR,Europe/Paris,48.766667,4.516667
377,Aiguillon,FR,Europe/Paris,44.2987224,0.3352388
378,St-Martin-aux-Champs,FR,Europe/Paris,48.816667,4.483333
379,Bouilly,FR,Europe/Paris,48.2,4
380,Chamoy,FR,Europe/Paris,48.116667,3.966667
381,Jeugny,FR,Europe/Paris,48.128443,4.039581
382,Montigny-les-Monts,FR,Europe/Paris,48.1,3.95
383,St-Germain Mairie,FR,Europe/Paris,48.259911,4.007804
384,St-Jean-de-Bonneval,FR,Europe/Paris,48.166667,4.05
385,St-Phal Monument aux morts,FR,Europe/Paris,48.116667,4
386,Villery,FR,Europe/Paris,48.165524,4.023086
387,Neuvy-Sautour RN,FR,Europe/Paris,48.033333,3.8
388,Brienon Mairie,FR,Europe/Paris,48,3.616667
389,St-Lyé,FR,Europe/Paris,48.366667,4
390,Payns,FR,Europe/Paris,48.383333,3.966667
391,Savières,FR,Europe/Paris,48.416667,3.95
392,St-Mesmin,FR,Europe/Paris,48.45,3.933333
393,Vallant-St-Georges,FR,Europe/Paris,48.466168,3.899331
394,Châtres,FR,Europe/Paris,48.5,3.85
395,Maizières-La Grande-Paroisse,FR,Europe/Paris,48.516667,3.783333
396,Romilly-sur-Seine,FR,Europe/Paris,48.514433,3.728887
399,Marnay-sur-Seine,FR,Europe/Paris,48.516667,3.55
400,Nogent-sur-Seine,FR,Europe/Paris,48.49783878,3.49372888
401,Aigueperse,FR,Europe/Paris,46.0147884,3.1982621
402,Vendeuvre,FR,Europe/Paris,48.2400686,4.4672135
403,Bar-sur-Aube,FR,Europe/Paris,48.2385399,4.7066708
404,St-Florentin Hôtel de Ville,FR,Europe/Paris,48,3.733333
406,Foug,FR,Europe/Paris,48.6792561,5.7912761
407,Fontenoy-sur-Moselle,FR,Europe/Paris,48.711721,5.9803654
408,Liverdun,FR,Europe/Paris,48.7493158,6.0617374
409,Champigneulles,FR,Europe/Paris,48.73499,6.16913
410,Laneuveville-devant-Nancy,FR,Europe/Paris,48.65564,6.22792
411,Argèles-Gazost,FR,Europe/Paris,43.1,-0.05
412,Arches,FR,Europe/Paris,48.1198133,6.5283085
413,Varangéville—St-Nicolas,FR,Europe/Paris,48.63533929,6.31286037
414,Dombasle-sur-Meurthe,FR,Europe/Paris,48.623275,6.343478
415,Rosières-aux-Salines,FR,Europe/Paris,48.60563,6.350457
416,Argelès-sur-Mer,FR,Europe/Paris,42.54397,3.022349
417,Marainviller,FR,Europe/Paris,48.583333,6.6
419,Embermenil,FR,Europe/Paris,48.633333,6.7
421,Einvaux,FR,Europe/Paris,48.5034859,6.3932959
422,Bayon,FR,Europe/Paris,48.468046,6.322569
423,Argentan,FR,Europe/Paris,48.738545,-0.025291
424,Xermamenil—Lamath,FR,Europe/Paris,48.534981,6.457553
425,Arvant,FR,Europe/Paris,45.3653797,3.3106747
426,Gerbeviller,FR,Europe/Paris,48.5,6.516667
427,Moyen,FR,Europe/Paris,48.483333,6.566667
428,Soulosse,FR,Europe/Paris,48.40923,5.739127
429,Magnières,FR,Europe/Paris,48.45,6.566667
430,Ascq,FR,Europe/Paris,50.6218591,3.1598992
432,Coussey,FR,Europe/Paris,48.416667,5.683333
433,Domremy-la-Pucelle,FR,Europe/Paris,48.45,5.683333
434,Auxerre-St-Gervais,FR,Europe/Paris,47.797645,3.58514
435,Aspres-sur-Buëch,FR,Europe/Paris,44.519428,5.7545655
436,St-Clément-Laronxe,FR,Europe/Paris,48.5312283,6.6081108
437,Chenevières,FR,Europe/Paris,48.5195062,6.6325613
438,Ménil-Flin,FR,Europe/Paris,48.5050204,6.6592265
439,Azerailles,FR,Europe/Paris,48.4913355,6.695778
440,Baccarat,FR,Europe/Paris,48.452405,6.74383
441,Bertrichamps,FR,Europe/Paris,48.4283359,6.7912343
442,Thiaville,FR,Europe/Paris,48.4139874,6.8102635
443,Houdemont,FR,Europe/Paris,48.645478,6.1797255
444,Ludres,FR,Europe/Paris,48.6219545,6.1709118
445,Messein,FR,Europe/Paris,48.6128788,6.1378364
446,Neuves-Maisons,FR,Europe/Paris,48.6147666,6.1078904
447,Pont-St-Vincent,FR,Europe/Paris,48.6023732,6.1031502
448,Aixe-sur-Vienne,FR,Europe/Paris,45.7965002,1.1456892
449,Adamswiller,FR,Europe/Paris,48.90375766,7.201194763
450,Bainville,FR,Europe/Paris,48.5863794,6.099327
452,Xeuilley,FR,Europe/Paris,48.5697134,6.1022334
453,Pierreville,FR,Europe/Paris,48.5488838,6.1241409
454,Pulligny—Autrey,FR,Europe/Paris,48.5360716,6.1374765
455,Ceintrey,FR,Europe/Paris,48.523865,6.1572868
456,Tantonville,FR,Europe/Paris,48.4838433,6.129105
457,Vézelise,FR,Europe/Paris,48.4805518,6.1006508
458,Praye-sous-Vaudémont,FR,Europe/Paris,48.4327891,6.1006981
459,Diarville,FR,Europe/Paris,48.3975653,6.1264922
460,Domgermain,FR,Europe/Paris,48.65,5.816667
461,Charmes-la-Côte,FR,Europe/Paris,48.633333,5.833333
462,Blenod-les-Toul,FR,Europe/Paris,48.6,5.833333
463,Bulligny—Crézilles,FR,Europe/Paris,48.576646,5.848966
464,Barisey-la-Côte,FR,Europe/Paris,48.55,5.85
465,Pompey,FR,Europe/Paris,48.77304,6.13061
466,Marbache,FR,Europe/Paris,48.8010405,6.1091755
467,Belleville,FR,Europe/Paris,48.8195721,6.1018641
468,Dieulouard,FR,Europe/Paris,48.843367,6.071489
469,Pont-à-Mousson,FR,Europe/Paris,48.90058,6.050842
470,Luzy-sur-Marne,FR,Europe/Paris,48.05,5.183333
471,Chaudenay,FR,Europe/Paris,47.833333,5.5
472,Hortes,FR,Europe/Paris,47.838739,5.553454
473,Charmoy—Fayl-Billot,FR,Europe/Paris,47.809308,5.604145
474,Auch,FR,Europe/Paris,43.647488,0.596661
475,Laferté-sur-Amance,FR,Europe/Paris,47.833333,5.7
476,Vitrey—Vernois,FR,Europe/Paris,47.830406,5.779407
477,Barges,FR,Europe/Paris,47.866667,5.85
479,Bologne,FR,Europe/Paris,48.1986877,5.1342228
480,Vignory,FR,Europe/Paris,48.2701366,5.1241594
481,Aurillac,FR,Europe/Paris,44.921092,2.435655
482,Froncles,FR,Europe/Paris,48.2964154,5.1419387
483,Gudmont,FR,Europe/Paris,48.3382279,5.1408271
484,Donjeux,FR,Europe/Paris,48.3658544,5.1482245
485,Avignon TGV,FR,Europe/Paris,43.921586,4.786079
486,Avail,FR,Europe/Paris,46.960187,2.05319
487,Damblain,FR,Europe/Paris,48.0937645,5.6563504
488,Châtillon-sur-Seine,FR,Europe/Paris,47.86126132,4.57482934
489,Avignon,FR,Europe/Paris,43.95,4.816667
493,Aguilcourt—Variscourt,FR,Europe/Paris,49.408017,3.973137
494,Prauthoy,FR,Europe/Paris,47.666667,5.283333
495,Vaux-sous-Aubigny,FR,Europe/Paris,47.657894,5.291365
497,Selongey,FR,Europe/Paris,47.58704,5.18604
499,Maatz,FR,Europe/Paris,47.7,5.45
500,Champlitte,FR,Europe/Paris,47.616667,5.516667
501,Neuvelle-lès-Champlitte,FR,Europe/Paris,47.583333,5.55
502,Oyrières,FR,Europe/Paris,47.533333,5.566667
503,Chargey-les-Gray,FR,Europe/Paris,47.483333,5.583333
504,Til-Châtel,FR,Europe/Paris,47.514121,5.169067
505,Velles,FR,Europe/Paris,47.833292,5.723971
506,Vraincourt-Viéville,FR,Europe/Paris,48.2366981,5.1239383
507,Le Pailly,FR,Europe/Paris,47.8,5.416667
508,Rivières-le-Bois,FR,Europe/Paris,47.733333,5.433333
509,Grandchamp,FR,Europe/Paris,47.716667,5.45
510,Leffond,FR,Europe/Paris,47.666667,5.466667
512,Le Martoulet,FR,Europe/Paris,45.577772,1.471192
513,Coublanc,FR,Europe/Paris,47.7,5.466667
514,Écuelle,FR,Europe/Paris,47.55,5.55
515,Corgirnon,FR,Europe/Paris,47.8,5.5
516,Rougeux,FR,Europe/Paris,47.816667,5.583333
519,Beausoleil,FR,Europe/Paris,43.75,7.433333
520,Roville-aux-Chênes,FR,Europe/Paris,48.383333,6.6
521,Docelles—Cheniménil,FR,Europe/Paris,48.1436134,6.6104793
522,Lépanges,FR,Europe/Paris,48.1727165,6.6722884
523,Charmes,FR,Europe/Paris,48.378483,6.301537
524,Vincey,FR,Europe/Paris,48.3436471,6.3355129
525,Châtel—Nomexy,FR,Europe/Paris,48.307156,6.387807
526,Igney,FR,Europe/Paris,48.2709639,6.3995463
527,Thaon,FR,Europe/Paris,48.24465,6.416384
528,Raves—Ban-de-Laveline,FR,Europe/Paris,48.265723,7.0378799
529,Xertigny,FR,Europe/Paris,48.0530255,6.3767687
530,Bains-les-Bains,FR,Europe/Paris,47.9811282,6.2952683
531,Laveline-devant-Bruyères,FR,Europe/Paris,48.185596,6.7512466
532,Biffontaine,FR,Europe/Paris,48.2059398,6.8071811
533,Corcieux—Vanémont,FR,Europe/Paris,48.1982842,6.8772915
535,Mirecourt,FR,Europe/Paris,48.299243,6.129651
536,Contrexéville,FR,Europe/Paris,48.1796129,5.890633
537,Martigny-les-Bains,FR,Europe/Paris,48.1086889,5.8255764
538,Lamarche,FR,Europe/Paris,48.0901299,5.7604385
539,Rozières-sur-Mouzon,FR,Europe/Paris,48.1208921,5.7054886
540,Provenchères-sur-Fave,FR,Europe/Paris,48.3046291,7.0854904
541,Colroy—Lubine,FR,Europe/Paris,48.3145855,7.1317294
542,Pouxeux,FR,Europe/Paris,48.1039421,6.5810266
543,Éloyes,FR,Europe/Paris,48.087067,6.6001593
544,Vecoux,FR,Europe/Paris,47.980175,6.636951
545,St-Léonard,FR,Europe/Paris,48.2170818,6.9415509
546,Rupt-sur-Moselle,FR,Europe/Paris,47.933333,6.666667
547,Ferdrupt,FR,Europe/Paris,47.9,6.716667
548,Ramonchamp,FR,Europe/Paris,47.9,6.75
549,Le Thillot,FR,Europe/Paris,47.883333,6.766667
550,Fresse,FR,Europe/Paris,47.866667,6.783333
551,St-Maurice-sur-Moselle,FR,Europe/Paris,47.866667,6.833333
552,Bussang,FR,Europe/Paris,47.883333,6.85
553,Raon-l’Étape,FR,Europe/Paris,48.404002,6.837302
554,Vagney,FR,Europe/Paris,48.005974,6.710573
555,Étival-Clairefontaine,FR,Europe/Paris,48.3671987,6.8769607
556,Zainvillers,FR,Europe/Paris,47.996347,6.713764
557,Thiéfosse,FR,Europe/Paris,47.969892,6.73061
558,Saulxures-sur-Moselotte,FR,Europe/Paris,47.95,6.766667
559,St-Michel-sur-Meurthe,FR,Europe/Paris,48.3269843,6.8882777
560,Cornimont,FR,Europe/Paris,47.966667,6.833333
561,Deinvillers,FR,Europe/Paris,48.416667,6.55
563,Rambervillers,FR,Europe/Paris,48.35,6.633333
564,Jeanmenil,FR,Europe/Paris,48.333333,6.683333
566,Autrey,FR,Europe/Paris,48.3,6.683333
567,Dompaire,FR,Europe/Paris,48.216667,6.216667
568,Brouvelieures,FR,Europe/Paris,48.233333,6.733333
572,Bocquegney,FR,Europe/Paris,48.216667,6.3
574,Racecourt,FR,Europe/Paris,48.25,6.183333
575,Vélotte-et-Tatignecourt,FR,Europe/Paris,48.261475,6.164487
579,Bagnoles-de-l’Orne Office de Tourisme,FR,Europe/Paris,48.55437,-0.410609
580,St-Nabord,FR,Europe/Paris,48.0461722,6.5818945
581,Hielle—Rupt,FR,Europe/Paris,47.968714,6.635522
582,Maxonchamp,FR,Europe/Paris,47.945783,6.63269
583,Dommartin,FR,Europe/Paris,48,6.65
584,Ste-Marguerite—Remomeix,FR,Europe/Paris,48.260342,6.980995
585,Blanchifontaine,FR,Europe/Paris,48.339142,6.656682
586,Frémifontaine,FR,Europe/Paris,48.266667,6.683333
587,La Bresse,FR,Europe/Paris,48,6.883333
588,Laneuveville-aux-Bois,FR,Europe/Paris,48.616667,6.65
589,Vallois,FR,Europe/Paris,48.468442,6.564112
591,Greux,FR,Europe/Paris,48.45,5.683333
592,Goussaincourt,FR,Europe/Paris,48.48384913,5.693310499
593,Burey-la-Côte,FR,Europe/Paris,48.5,5.7
598,Montbré,FR,Europe/Paris,49.1942075,4.0388482
599,Trois-Puits,FR,Europe/Paris,49.2067481,4.0384678
600,Muizon,FR,Europe/Paris,49.2781012,3.8915287
601,Jonchery-sur-Vesle,FR,Europe/Paris,49.290057,3.819422
602,Breuil-Romain,FR,Europe/Paris,49.3084141,3.7665322
603,Fismes,FR,Europe/Paris,49.310665,3.68213
604,Bazoches,FR,Europe/Paris,49.30518,3.6163588
605,Mont-Notre-Dame,FR,Europe/Paris,49.2967797,3.5764545
606,Fère-en-Tardenois,FR,Europe/Paris,49.2085631,3.5042685
607,Dormans,FR,Europe/Paris,49.0791611,3.641709
608,Aÿ,FR,Europe/Paris,49.0487318,4.0015644
609,Avenay,FR,Europe/Paris,49.0647826,4.043689
610,Germaine,FR,Europe/Paris,49.1277634,4.0228976
611,Rilly-la-Montagne,FR,Europe/Paris,49.1664524,4.0408608
612,Val-de-Vesle,FR,Europe/Paris,49.17792,4.22221
613,Prunay,FR,Europe/Paris,49.1988,4.18364
614,Sillery,FR,Europe/Paris,49.20324,4.14427
615,Sept-Saulx,FR,Europe/Paris,49.1511332,4.2569742
616,Mairy-sur-Marne,FR,Europe/Paris,48.866667,4.416667
617,Courcy-Brimont,FR,Europe/Paris,49.3296003,4.0134623
618,Loivre,FR,Europe/Paris,49.3466786,3.9906699
619,Guignicourt,FR,Europe/Paris,49.434862,3.961334
620,Amifontaine,FR,Europe/Paris,49.4847322,3.9105811
621,St-Erme,FR,Europe/Paris,49.5269865,3.8576502
622,Coucy-lès-Eppes,FR,Europe/Paris,49.556282,3.7748209
623,Nouzonville,FR,Europe/Paris,49.8120125,4.7428155
624,Joigny-sur-Meuse,FR,Europe/Paris,49.8336807,4.7672389
625,Bogny-sur-Meuse,FR,Europe/Paris,49.8583117,4.7632317
626,Monthermé,FR,Europe/Paris,49.865621,4.74053
627,Deville,FR,Europe/Paris,49.8796028,4.7072062
628,Laifour,FR,Europe/Paris,49.911256,4.6923484
629,Revin,FR,Europe/Paris,49.938756,4.642536
630,Fumay,FR,Europe/Paris,49.986048,4.6926
631,Haybes,FR,Europe/Paris,50.0116888,4.7045378
632,Vireux-Molhain,FR,Europe/Paris,50.0827968,4.7233909
633,Aubrives,FR,Europe/Paris,50.1044507,4.7616512
634,Givet,FR,Europe/Paris,50.14025067,4.81798595
635,Lumes,FR,Europe/Paris,49.7327973,4.7833571
636,Nouvion-sur-Meuse,FR,Europe/Paris,49.6973135,4.794973
637,Vrigne-Meuse,FR,Europe/Paris,49.7010822,4.8438063
638,Donchery,FR,Europe/Paris,49.6981267,4.8747529
639,Amagne—Lucquy,FR,Europe/Paris,49.5238187,4.4738775
640,Rethel,FR,Europe/Paris,49.504393,4.369566
641,Pont-Maugis,FR,Europe/Paris,49.666667,4.95
642,Bazeilles,FR,Europe/Paris,49.666667,4.983333
643,Douzy,FR,Europe/Paris,49.666667,5.05
644,Pouru-St-Rémy,FR,Europe/Paris,49.683333,5.083333
645,Sachy,FR,Europe/Paris,49.666667,5.133333
646,Carignan,FR,Europe/Paris,49.6285736,5.1684754
647,Blagny,FR,Europe/Paris,49.616667,5.183333
648,Linay,FR,Europe/Paris,49.616667,5.216667
649,Margut Fromy,FR,Europe/Paris,49.590323,5.254995
650,Liart,FR,Europe/Paris,49.7700597,4.3355138
651,Beauchastel,FR,Europe/Paris,44.833333,4.8
652,Remilly-Aillicourt,FR,Europe/Paris,49.6518,4.993642
653,Bénestroff,FR,Europe/Paris,48.90656,6.75266
656,Anchamps,FR,Europe/Paris,49.9307448,4.6702434
657,Fépin,FR,Europe/Paris,50.0234644,4.7266156
659,Brest,FR,Europe/Paris,48.38811,-4.478903
660,Wadelincourt,FR,Europe/Paris,49.682651,4.937918
661,La Ferté-sur-Chiers,FR,Europe/Paris,49.566667,5.233333
664,Songy,FR,Europe/Paris,48.801708,4.495397
665,Loisy-sur-Marne,FR,Europe/Paris,48.766667,4.55
666,Pringy (Marne),FR,Europe/Paris,48.783333,4.516667
667,Vitry-le-François,FR,Europe/Paris,48.718142,4.587581
668,Mourmelon-le-Petit,FR,Europe/Paris,49.1313076,4.3180982
669,Uxegney,FR,Europe/Paris,48.193876,6.370727
670,Bouy,FR,Europe/Paris,49.09131,4.35292
671,Darnieulles,FR,Europe/Paris,48.2,6.35
672,Mattaincourt,FR,Europe/Paris,48.283333,6.133333
673,St-Âme,FR,Europe/Paris,48.033333,6.666667
674,St-Âme—Le Syndicat,FR,Europe/Paris,48.024474,6.686994
677,Suippes,FR,Europe/Paris,49.120151,4.543885
678,Ste-Ménéhould,FR,Europe/Paris,49.1,4.866667
679,St-Dizier,FR,Europe/Paris,48.642404,4.947855
680,Revigny,FR,Europe/Paris,48.8240449,4.9855736
681,Nançois-Tronville,FR,Europe/Paris,48.7180423,5.2912016
682,Fronville,FR,Europe/Paris,48.4001829,5.1564405
683,Joinville,FR,Europe/Paris,48.4442977,5.143503
685,Curel,FR,Europe/Paris,48.5,5.133333
686,Chevillon,FR,Europe/Paris,48.5245505,5.1117843
687,Bayard,FR,Europe/Paris,48.5520296,5.0754439
688,Eurville,FR,Europe/Paris,48.5828713,5.0449583
690,Villiers-en-Lieu,FR,Europe/Paris,48.661135,4.896801
691,St-Eulien,FR,Europe/Paris,48.683333,4.883333
692,Commercy,FR,Europe/Paris,48.765749,5.58861
693,Berthelming,FR,Europe/Paris,48.8096475,7.0087859
694,Bouin,FR,Europe/Paris,46.966667,-2
695,Les Islettes,FR,Europe/Paris,49.10635,5.00184
696,Clermont-en-Argonne,FR,Europe/Paris,49.10645,5.06506
697,Étain,FR,Europe/Paris,49.2074907,5.6398079
702,Neuville-les-Vaucouleurs,FR,Europe/Paris,48.583333,5.666667
703,Burey-en-Vaux,FR,Europe/Paris,48.566667,5.666667
704,Maxey-sur-Vaise,FR,Europe/Paris,48.533333,5.666667
705,Hasenrain,FR,Europe/Paris,47.736281,7.3313559
706,Brunstatt,FR,Europe/Paris,47.716667,7.316667
707,Flaxlanden,FR,Europe/Paris,47.6986924,7.3044703
708,Beillant,FR,Europe/Paris,45.7007999,-0.5265079
709,Blesme-Haussignemont,FR,Europe/Paris,48.72125652,4.752992392
710,Tagolsheim,FR,Europe/Paris,47.6549682,7.2641437
711,Walheim,FR,Europe/Paris,47.6416406,7.2633202
712,Ballersdorf,FR,Europe/Paris,47.633333,7.166667
713,Biarritz,FR,Europe/Paris,43.459397,-1.545915
714,Valdieu,FR,Europe/Paris,47.63131555,7.05604434
715,Graffenwald,FR,Europe/Paris,47.7808232,7.2247908
716,St-André (Haut Rhin),FR,Europe/Paris,47.79097,7.155053
717,Colmar Mésanges,FR,Europe/Paris,48.0860048,7.3336703
718,Colmar St-Joseph,FR,Europe/Paris,48.0816399,7.3453397
719,St-Gilles,FR,Europe/Paris,48.0758611,7.2609746
723,Mulhouse—Dornach,FR,Europe/Paris,47.74713,7.308477
724,Rixheim,FR,Europe/Paris,47.74896,7.406404
725,Habsheim,FR,Europe/Paris,47.737691,7.417979
726,Sierentz,FR,Europe/Paris,47.656047,7.459142
727,Bartenheim,FR,Europe/Paris,47.6349313,7.4872561
728,Zillisheim,FR,Europe/Paris,47.6943143,7.2945376
729,Illfurth,FR,Europe/Paris,47.6764322,7.2685712
730,Altkirch,FR,Europe/Paris,47.6270174,7.2392493
731,Dannemarie,FR,Europe/Paris,47.6275771,7.124907
732,Ribeauvillé,FR,Europe/Paris,48.19759,7.22158
735,Herrlisheim-près-Colmar,FR,Europe/Paris,48.0166417,7.3206381
736,Rouffach,FR,Europe/Paris,47.9602481,7.312455
737,Logelbach,FR,Europe/Paris,48.087299,7.3206082
738,Turckheim,FR,Europe/Paris,48.0856288,7.279466
739,Walbach,FR,Europe/Paris,48.0580062,7.2334758
740,Wihr-au-Val—Soultzbach,FR,Europe/Paris,48.0460522,7.2095351
741,Gunsbach—Griesbach,FR,Europe/Paris,48.0414908,7.1748407
742,Ranspach,FR,Europe/Paris,47.8815954,7.0123184
743,Cernay,FR,Europe/Paris,47.802,7.1737
744,Burnhaupt,FR,Europe/Paris,47.733333,7.15
745,Guewenheim,FR,Europe/Paris,47.752828,7.092533
746,Sentheim,FR,Europe/Paris,47.75252549,7.057535648
747,Lauw,FR,Europe/Paris,47.756291,7.018375
748,Masevaux,FR,Europe/Paris,47.776713,6.996832
749,Sickert,FR,Europe/Paris,47.783808,6.978464
750,Niederbruck,FR,Europe/Paris,47.783333,6.966667
751,Kirchberg,FR,Europe/Paris,47.797532,6.957951
752,Oberbruck,FR,Europe/Paris,47.807678,6.943531
753,Sewen,FR,Europe/Paris,47.80716,6.90568
754,Luttenbach-près-Munster,FR,Europe/Paris,48.0352559,7.1186307
755,Vieux-Thann,FR,Europe/Paris,47.8058505,7.1194904
756,Bitschwiller,FR,Europe/Paris,47.8273719,7.078514
757,Willer-sur-Thur,FR,Europe/Paris,47.8425494,7.0693196
758,Moosch,FR,Europe/Paris,47.8607454,7.0507631
759,St-Amarin,FR,Europe/Paris,47.8728596,7.0287447
760,Wesserling,FR,Europe/Paris,47.8899651,6.997519
761,Fellering,FR,Europe/Paris,47.8975893,6.9871347
762,Oderen,FR,Europe/Paris,47.9118756,6.9734829
763,Kruth,FR,Europe/Paris,47.92396,6.9690938
764,Breitenbach,FR,Europe/Paris,48.0285326,7.1040522
765,Richwiller,FR,Europe/Paris,47.783333,7.283333
766,Wittelsheim,FR,Europe/Paris,47.81733322,7.264323235
767,Staffelfelden,FR,Europe/Paris,47.8279612,7.2651657
768,Bollwiller,FR,Europe/Paris,47.8569694,7.2672555
769,Raedersheim,FR,Europe/Paris,47.8869059,7.2840467
770,Merxheim,FR,Europe/Paris,47.9126413,7.3022795
771,Muhlbach-sur-Munster,FR,Europe/Paris,48.0246077,7.0875666
772,Malmerspach,FR,Europe/Paris,47.866667,7.033333
773,Metzéral,FR,Europe/Paris,48.0133301,7.0733383
775,Bas-Evette,FR,Europe/Paris,47.6810089,6.8068494
778,Bort-les-Orgues,FR,Europe/Paris,45.40645751,2.502157688
779,Trois-Chênes,FR,Europe/Paris,47.6480822,6.8462281
780,Chèvremont,FR,Europe/Paris,47.6216292,6.9214733
781,Petit-Croix,FR,Europe/Paris,47.6101045,6.9947414
782,Montreux-Vieux,FR,Europe/Paris,47.6178576,7.0253947
783,Blainville—Damelevières,FR,Europe/Paris,48.564971,6.386953
784,Héricourt,FR,Europe/Paris,47.5729701,6.7691977
785,Voujeaucourt,FR,Europe/Paris,47.4789729,6.7699667
786,Bourg-Madame,FR,Europe/Paris,42.4324069,1.9486704
787,Colombier-Fontaine,FR,Europe/Paris,47.4554849,6.6890071
789,L’Isle-sur-le-Doubs,FR,Europe/Paris,47.4473777,6.5812614
792,Clerval,FR,Europe/Paris,47.3966577,6.4920574
793,Port-sur-Saône,FR,Europe/Paris,47.683333,6.05
795,Grattery,FR,Europe/Paris,47.666667,6.083333
796,Noidans-lès-Vesoul,FR,Europe/Paris,47.616667,6.133333
800,Montureux-lès-Baulay,FR,Europe/Paris,47.816667,5.983333
801,Ronchamp,FR,Europe/Paris,47.6990308,6.6232791
802,Champagney,FR,Europe/Paris,47.7031399,6.7012773
803,Jussey,FR,Europe/Paris,47.816667,5.9
804,Masseret Ville,FR,Europe/Paris,45.533333,1.516667
805,Barberey Route de Méry,FR,Europe/Paris,48.35,4.016667
807,Béning,FR,Europe/Paris,49.1379541,6.8282982
809,Mont-le-Vernois,FR,Europe/Paris,47.6,6.066667
810,Luxeuil-les-Bains,FR,Europe/Paris,47.8148606,6.3726593
812,Loupershouse,FR,Europe/Paris,49.081102,6.914979
813,Walygator Parc,FR,Europe/Paris,49.22492,6.15946
814,Maizières-lès-Metz,FR,Europe/Paris,49.2155349,6.1588762
815,Uckange,FR,Europe/Paris,49.3032605,6.1567735
816,Knutange—Nilvange,FR,Europe/Paris,49.340801,6.047762
817,Hayange,FR,Europe/Paris,49.33053,6.07245
818,Aubusson Gare Routière,FR,Europe/Paris,45.95500609,2.170883417
819,Metzeresche,FR,Europe/Paris,49.3,6.316667
820,Yutz,FR,Europe/Paris,49.361354,6.2093949
821,Kuntzig,FR,Europe/Paris,49.349918,6.2345596
822,Distroff,FR,Europe/Paris,49.3352322,6.2603013
823,Metzervisse,FR,Europe/Paris,49.3179579,6.2838554
824,Kédange,FR,Europe/Paris,49.3056643,6.3324034
825,Hombourg-Budange,FR,Europe/Paris,49.2823957,6.3507488
827,Bordeaux,FR,Europe/Paris,44.83773065,-0.577431321
828,Bordeaux St-Jean,FR,Europe/Paris,44.825873,-0.556697
829,Boé,FR,Europe/Paris,44.166667,0.633333
830,Ébersviller,FR,Europe/Paris,49.2747715,6.4111622
831,Anzeling,FR,Europe/Paris,49.2620718,6.4602649
832,Freistroff,FR,Europe/Paris,49.2780593,6.4926709
833,Remelfang,FR,Europe/Paris,49.266667,6.516667
834,Basse-Ham,FR,Europe/Paris,49.3805708,6.2348709
835,Koenigsmacker,FR,Europe/Paris,49.3965538,6.2735503
836,Malling,FR,Europe/Paris,49.42152,6.302207
837,Sierck-les-Bains,FR,Europe/Paris,49.4440155,6.3500946
838,Apach,FR,Europe/Paris,49.4439732,6.3500923
839,Homécourt,FR,Europe/Paris,49.2182988,5.9991714
840,Belfort-Ville,FR,Europe/Paris,47.633284,6.853956
841,Jœuf,FR,Europe/Paris,49.2250083,6.0177021
842,Moyeuvre-Grande,FR,Europe/Paris,49.246713,6.043226
843,Bourges,FR,Europe/Paris,47.094145,2.394255
844,Boves,FR,Europe/Paris,49.8462355,2.3981165
845,Rombas—Clouange,FR,Europe/Paris,49.2560553,6.0990538
846,Gandrange—Amnéville,FR,Europe/Paris,49.2608222,6.1358897
849,Woippy,FR,Europe/Paris,49.1487965,6.155621
851,Vatimont,FR,Europe/Paris,48.979731,6.467163
852,Lucy,FR,Europe/Paris,48.95,6.466667
853,Chenois,FR,Europe/Paris,48.966667,6.5
854,Holacourt,FR,Europe/Paris,48.966667,6.516667
855,Arraincourt,FR,Europe/Paris,48.966667,6.533333
856,Racrange,FR,Europe/Paris,48.916667,6.666667
857,Bermering,FR,Europe/Paris,48.933333,6.7
858,Marimont-lès-Bénestroff,FR,Europe/Paris,48.889891,6.785431
859,Peltre,FR,Europe/Paris,49.073877,6.2220476
860,Courcelles-sur-Nied,FR,Europe/Paris,49.0634035,6.3109926
861,Sanry-sur-Nied,FR,Europe/Paris,49.0445991,6.3399775
862,Baudrecourt,FR,Europe/Paris,48.966667,6.45
863,Lesse,FR,Europe/Paris,48.966667,6.516667
864,Brulange,FR,Europe/Paris,48.969861,6.549693
865,Morhange,FR,Europe/Paris,48.9366239,6.6590266
866,Ars-sur-Moselle,FR,Europe/Paris,49.0744745,6.0776461
867,Ancy-sur-Moselle,FR,Europe/Paris,49.0575093,6.0627661
868,Pagny-sur-Moselle,FR,Europe/Paris,48.9852003,6.0250346
869,Vandières,FR,Europe/Paris,48.9521683,6.0392275
870,Baroncourt,FR,Europe/Paris,49.2845332,5.6997387
871,Hatrize,FR,Europe/Paris,49.1934741,5.9071141
872,Valleroy—Moineville,FR,Europe/Paris,49.2056957,5.9360165
873,Bourges Gare Routière,FR,Europe/Paris,47.083333,2.4
874,Baronville,FR,Europe/Paris,48.933333,6.6
875,Vahl-les-Bénestroff,FR,Europe/Paris,48.913148,6.785372
876,Hargarten—Falck,FR,Europe/Paris,49.221756,6.63687
877,Teterchen,FR,Europe/Paris,49.232534,6.560606
878,Brettnach,FR,Europe/Paris,49.25,6.566667
879,Bouzonville,FR,Europe/Paris,49.2899739,6.5293736
880,Hombourg-Budange Haut,FR,Europe/Paris,49.1261085,6.7742703
881,St-Avold,FR,Europe/Paris,49.085873,6.7206141
882,Teting,FR,Europe/Paris,49.051605,6.6646267
883,Faulquemont,FR,Europe/Paris,49.0453391,6.6039774
884,Herny,FR,Europe/Paris,49.0036084,6.4769285
887,Breil-sur-Roya,FR,Europe/Paris,43.944039,7.5163276
888,Bressuire,FR,Europe/Paris,46.8384462,-0.4963269
890,Theding,FR,Europe/Paris,49.126686,6.895238
891,Farébersviller,FR,Europe/Paris,49.1181603,6.8618926
892,Farschviller,FR,Europe/Paris,49.0878773,6.9080815
893,Diebling,FR,Europe/Paris,49.116667,6.933333
894,Hundling,FR,Europe/Paris,49.1066949,6.9775394
895,Metzing,FR,Europe/Paris,49.1,6.966667
896,Ippling,FR,Europe/Paris,49.1,7
898,Welferding,FR,Europe/Paris,49.11216,7.046608
899,Rémelfing,FR,Europe/Paris,49.091627,7.0915336
900,Sarreinsming,FR,Europe/Paris,49.086306,7.1120387
901,Zetting,FR,Europe/Paris,49.0783736,7.13454
902,Wittring,FR,Europe/Paris,49.0559404,7.1410655
903,Herbitzheim,FR,Europe/Paris,49.0138973,7.0801596
904,Ravezies,FR,Europe/Paris,44.86645088,-0.576953888
905,Boussens,FR,Europe/Paris,43.179617,0.972543
906,Woelfling-lès-Sarreguemines,FR,Europe/Paris,49.094747,7.190609
907,Rohrbach-lès-Bitche,FR,Europe/Paris,49.05535,7.26433
908,Petit-Réderching,FR,Europe/Paris,49.0493205,7.2997305
909,Busigny,FR,Europe/Paris,50.0397236,3.4461174
910,Enchenberg,FR,Europe/Paris,49.01614,7.33372
911,Lemberg,FR,Europe/Paris,49.00075,7.37962
912,Bréauté—Beuzeville,FR,Europe/Paris,49.603396,0.417489
913,Bitche,FR,Europe/Paris,49.04838,7.4321
914,Bitche Camp,FR,Europe/Paris,49.04875094,7.432331443
916,Ebring,FR,Europe/Paris,49.121311,6.914583
917,Montmédy,FR,Europe/Paris,49.5228775,5.3716718
918,Charency-Vezin,FR,Europe/Paris,49.483333,5.516667
919,Audun-le-Roman,FR,Europe/Paris,49.36682,5.89139
920,Fontoy,FR,Europe/Paris,49.35,6
921,Réhon,FR,Europe/Paris,49.5,5.75
922,Cons-la-Grandville,FR,Europe/Paris,49.483333,5.7
923,La Roche-sous-Montigny,FR,Europe/Paris,49.474003,5.663258
924,Viviers-sur-Chiers,FR,Europe/Paris,49.470344,5.630528
927,Gros-Rederching,FR,Europe/Paris,49.066667,7.216667
928,Destry,FR,Europe/Paris,48.95,6.583333
929,Mundolsheim,FR,Europe/Paris,48.6447732,7.721389
930,Busseau-sur-Creuse,FR,Europe/Paris,46.1230257,2.0229244
931,Stephansfeld,FR,Europe/Paris,48.7175872,7.7045946
932,Bueil,FR,Europe/Paris,48.9253816,1.4435896
933,Brumath,FR,Europe/Paris,48.7331082,7.7004016
934,Schwindratzheim,FR,Europe/Paris,48.7536468,7.6005468
935,Hochfelden,FR,Europe/Paris,48.7554199,7.572355
936,Wilwisheim,FR,Europe/Paris,48.745831,7.5077599
937,Dettwiller,FR,Europe/Paris,48.7518969,7.4652459
938,Strasbourg Roethig,FR,Europe/Paris,48.5632897,7.6950455
939,Zornhoff—Monswiller,FR,Europe/Paris,48.75265914,7.383874655
940,Graffenstaden,FR,Europe/Paris,48.5324375,7.6897861
941,Geispolsheim,FR,Europe/Paris,48.5190515,7.6843578
942,Fegersheim—Lipsheim,FR,Europe/Paris,48.4905892,7.6724806
943,Limersheim,FR,Europe/Paris,48.4617328,7.6603581
944,Bischheim,FR,Europe/Paris,48.6118352,7.7422165
945,Beuvrages,FR,Europe/Paris,50.3894892,3.5061396
946,La Wantzenau,FR,Europe/Paris,48.6651895,7.8247832
947,Kilstett,FR,Europe/Paris,48.6793065,7.8549031
948,Gambsheim,FR,Europe/Paris,48.6948699,7.8791884
949,Herrlisheim,FR,Europe/Paris,48.7279056,7.9102594
950,Drusenheim,FR,Europe/Paris,48.7659128,7.9478463
951,Bruyères,FR,Europe/Paris,48.204895,6.7187638
952,Buzy-en-Béarn,FR,Europe/Paris,43.1482723,-0.4558864
953,Beauvais,FR,Europe/Paris,49.42648,2.08869
954,Sessenheim,FR,Europe/Paris,48.7964628,7.9893194
955,Rountzenheim,FR,Europe/Paris,48.820435,8.0119078
956,Roeschwoog,FR,Europe/Paris,48.8334661,8.0298738
957,Brive-la-Gaillarde,FR,Europe/Paris,45.152618,1.528655
958,Roppenheim,FR,Europe/Paris,48.8510962,8.0623108
960,Seltz,FR,Europe/Paris,48.8965635,8.0986724
961,Munchhausen,FR,Europe/Paris,48.9237982,8.1409912
962,Mothern,FR,Europe/Paris,48.9347327,8.1615803
963,Lauterbourg,FR,Europe/Paris,48.9676973,8.1826817
964,Hattmatt,FR,Europe/Paris,48.790637,7.421436
965,Dossenheim-sur-Zinsel,FR,Europe/Paris,48.805902,7.402725
966,Neuwiller-les-Saverne,FR,Europe/Paris,48.825062,7.405128
967,Uberach,FR,Europe/Paris,48.8491,7.631374
970,Kaltenhouse,FR,Europe/Paris,48.8,7.833333
973,Neubourg,FR,Europe/Paris,48.838537,7.679943
974,Pfaffenhoffen,FR,Europe/Paris,48.85,7.616667
975,Bouxwiller,FR,Europe/Paris,48.82655255,7.478808761
977,Gundershoffen,FR,Europe/Paris,48.905261,7.6535345
978,Reichshoffen Ville,FR,Europe/Paris,48.9310582,7.658132
979,Niederbronn,FR,Europe/Paris,48.9523989,7.6341348
980,Philippsbourg,FR,Europe/Paris,48.983333,7.566667
981,Bannstein,FR,Europe/Paris,49.003139,7.502855
982,Eguelshardt,FR,Europe/Paris,49.016667,7.5
983,Walbourg,FR,Europe/Paris,48.8862164,7.8092705
984,Hoelschloch,FR,Europe/Paris,48.9163252,7.8314949
985,Soultz-sous-Forêts,FR,Europe/Paris,48.9347687,7.8827184
986,Hoffen,FR,Europe/Paris,48.9312475,7.933587
987,Hunspach,FR,Europe/Paris,48.9616379,7.9537409
988,Riedseltz,FR,Europe/Paris,48.991063,7.962988
989,Wissembourg,FR,Europe/Paris,49.0318895,7.9501435
991,Marienthal,FR,Europe/Paris,48.781863,7.8231894
992,Bischwiller,FR,Europe/Paris,48.765753,7.8516536
993,Kurtzenhouse,FR,Europe/Paris,48.741862,7.8130449
994,Weyersheim,FR,Europe/Paris,48.7177903,7.7971027
995,Hoerdt,FR,Europe/Paris,48.7029518,7.7794059
996,St-Lactensin—Tesseau,FR,Europe/Paris,46.867446,1.473233
997,Wimmenau,FR,Europe/Paris,48.911413,7.427948
998,Ingwiller,FR,Europe/Paris,48.8723277,7.477155
999,Menchhoffen,FR,Europe/Paris,48.859294,7.496195
1000,Bretenoux—Biars,FR,Europe/Paris,44.9273692,1.8436871
1001,Ettendorf,FR,Europe/Paris,48.812799,7.582455
1002,Alteckendorf,FR,Europe/Paris,48.791655,7.597046
1003,Tauxigny,FR,Europe/Paris,47.251986,0.840095
1004,Griesbach,FR,Europe/Paris,48.81472,7.435942
1005,Niedermodern,FR,Europe/Paris,48.84345201,7.614008188
1006,Ebersheim,FR,Europe/Paris,48.3099953,7.494471
1007,Kogenheim,FR,Europe/Paris,48.3389532,7.5353085
1008,Benfeld,FR,Europe/Paris,48.3735367,7.584125
1009,Matzenheim,FR,Europe/Paris,48.3987556,7.6196003
1010,Erstein,FR,Europe/Paris,48.4229857,7.6387869
1011,Scherwiller,FR,Europe/Paris,48.2869344,7.4301867
1012,Dambach-la-Ville,FR,Europe/Paris,48.3216345,7.4355565
1013,Epfig,FR,Europe/Paris,48.3637643,7.4504053
1014,Eichhoffen,FR,Europe/Paris,48.3824829,7.4495524
1015,Barr,FR,Europe/Paris,48.4032933,7.4565189
1016,Gertwiller,FR,Europe/Paris,48.4133621,7.4663166
1017,Goxwiller,FR,Europe/Paris,48.4327551,7.4787296
1018,Obernai,FR,Europe/Paris,48.46219,7.48881
1019,Bischoffsheim,FR,Europe/Paris,48.48701,7.49772
1021,Rosheim,FR,Europe/Paris,48.50525,7.49093
1022,Dorlisheim,FR,Europe/Paris,48.5249915,7.4930546
1034,Lingolsheim,FR,Europe/Paris,48.5594092,7.6781143
1035,Holtzheim,FR,Europe/Paris,48.555688,7.6630912
1036,Entzheim Aéroport,FR,Europe/Paris,48.54699,7.62794
1037,Duppigheim,FR,Europe/Paris,48.5439674,7.5868091
1038,Duttlenheim,FR,Europe/Paris,48.5453531,7.5661529
1039,Dachstein,FR,Europe/Paris,48.5428546,7.5330038
1040,Mutzig,FR,Europe/Paris,48.5337753,7.4621581
1041,Gresswiller,FR,Europe/Paris,48.53334,7.42468
1042,Heiligenberg—Mollkirch,FR,Europe/Paris,48.5273135,7.381426
1043,Urmatt,FR,Europe/Paris,48.5257763,7.3385385
1044,Mullerhof,FR,Europe/Paris,48.52451,7.3119577
1045,Lutzelhouse,FR,Europe/Paris,48.51812,7.29391
1046,Wisches,FR,Europe/Paris,48.5076495,7.2700936
1047,Bayeux,FR,Europe/Paris,49.269836,-0.698056
1048,Russ—Hersbach,FR,Europe/Paris,48.4982211,7.2519246
1049,Schirmeck—La Broque,FR,Europe/Paris,48.47973,7.21594
1050,Rothau,FR,Europe/Paris,48.4590026,7.2074902
1051,Fouday,FR,Europe/Paris,48.4248874,7.1874246
1052,St-Blaise-la-Roche—Poutay,FR,Europe/Paris,48.4076094,7.165329
1053,Saulxures,FR,Europe/Paris,48.3895555,7.1478548
1054,Bourg-Bruche,FR,Europe/Paris,48.3598566,7.1371919
1055,Saales,FR,Europe/Paris,48.3471556,7.1103726
1056,Chatenois,FR,Europe/Paris,48.27620999,7.401410937
1057,Val-de-Villé,FR,Europe/Paris,48.284083,7.383326
1059,Lièpvre,FR,Europe/Paris,48.266667,7.283333
1060,Ste-Croix-aux-Mines,FR,Europe/Paris,48.258535,7.246591
1061,Ste-Marie-aux-Mines,FR,Europe/Paris,48.25,7.183333
1062,Réding,FR,Europe/Paris,48.7429595,7.095885
1063,Igney—Avricourt,FR,Europe/Paris,48.6467012,6.8053062
1064,Nouvel-Avricourt,FR,Europe/Paris,48.646806,6.819252
1065,Rechicourt-le-Château,FR,Europe/Paris,48.666667,6.85
1066,Béziers,FR,Europe/Paris,43.33633,3.218873
1067,Gondrexange,FR,Europe/Paris,48.683333,6.933333
1068,Heming,FR,Europe/Paris,48.7,6.95
1069,Arzviller,FR,Europe/Paris,48.716667,7.166667
1070,Lutzelbourg,FR,Europe/Paris,48.7299065,7.2516808
1071,Hommarting,FR,Europe/Paris,48.733333,7.15
1072,St-Jean-de-Bassel,FR,Europe/Paris,48.80223,6.990722
1073,Gosselming,FR,Europe/Paris,48.783333,7
1074,Dolving,FR,Europe/Paris,48.766667,7.016667
1075,Romelfing,FR,Europe/Paris,48.833333,7.016667
1076,Cutting,FR,Europe/Paris,48.85,6.833333
1077,Domnon-les-Dieuze,FR,Europe/Paris,48.866667,6.816667
1078,Bassing,FR,Europe/Paris,48.866667,6.8
1079,Nebing,FR,Europe/Paris,48.9,6.816667
1080,Loudrefing,FR,Europe/Paris,48.85,6.866667
1081,Mittersheim,FR,Europe/Paris,48.866667,6.933333
1083,Oberstinzel,FR,Europe/Paris,48.8,7.033333
1085,Sarraltroff,FR,Europe/Paris,48.783333,7.05
1086,Bettborn,FR,Europe/Paris,48.8,7.016667
1088,Fénétrange,FR,Europe/Paris,48.85,7.016667
1089,Niederstinzel,FR,Europe/Paris,48.866667,7.033333
1090,Wolfskirchen,FR,Europe/Paris,48.882773,7.060676
1091,Bischtroff-sur-Sarre,FR,Europe/Paris,48.904752,7.073512
1092,Sarrewerden,FR,Europe/Paris,48.916667,7.083333
1093,Sarre-Union,FR,Europe/Paris,48.9360172,7.0850443
1094,Schopperten,FR,Europe/Paris,48.9456499,7.055779
1095,Keskastel,FR,Europe/Paris,48.9656988,7.0489315
1096,Oermingen,FR,Europe/Paris,49.0003724,7.1317322
1099,Diemeringen,FR,Europe/Paris,48.9405,7.18529
1100,Tieffenbach—Struth,FR,Europe/Paris,48.9062169,7.25527
1101,Frohmuhl,FR,Europe/Paris,48.907269,7.275464
1104,Chambourg Chopin,FR,Europe/Paris,47.183333,0.966667
1105,Eycheil,FR,Europe/Paris,42.966667,1.166667
1110,Erce,FR,Europe/Paris,42.8478693,1.29019618
1111,Aulus-les-Bains,FR,Europe/Paris,42.8,1.333333
1112,Latrape,FR,Europe/Paris,43.2448823,1.288077235
1113,Alaï,FR,Europe/Paris,45.7521198,4.7717824
1114,Cravant-Bazarnes,FR,Europe/Paris,47.6785079,3.6811741
1115,Lamure-sur-Azergues,FR,Europe/Paris,46.0610834,4.4921137
1116,Sorèze,FR,Europe/Paris,43.454232,2.072912
1119,Carcassonne,FR,Europe/Paris,43.218029,2.351824
1120,Balsièges,FR,Europe/Paris,44.4820108,3.4560976
1123,Châlons-en-Champagne,FR,Europe/Paris,48.833333,4.083333
1124,Châlons-en-Champagne Tissier,FR,Europe/Paris,48.939702,4.36064
1125,Châlons-en-Champagne,FR,Europe/Paris,48.955252,4.348656
1126,Châlons-en-Champagne Bagatelle,FR,Europe/Paris,48.925562,4.371831
1128,Paris Gare du Nord,FR,Europe/Paris,48.880185,2.355151
1129,Paris Gare du Nord,FR,Europe/Paris,48.880185,2.355151
1137,Culmont-Chalindrey,FR,Europe/Paris,47.8100902,5.4432217
1139,Capdenac,FR,Europe/Paris,44.5782458,2.0779632
1143,Aéroport-Paris-Roissy-Charles-de-Gaulle CDG,FR,Europe/Paris,49.00412434,2.570736408
1144,Aéroport-Paris-Roissy-Charles-de-Gaulle CDG,FR,Europe/Paris,49.003652,2.570892
1150,Coudekerque-Branche,FR,Europe/Paris,51.0177069,2.3751425
1151,Château-du-Loir,FR,Europe/Paris,47.683392,0.414912
1159,Nanteuil-le-Haudouin,FR,Europe/Paris,49.14275,2.79459
1160,Ormoy-Villers,FR,Europe/Paris,49.2003204,2.8379502
1161,Crépy-en-Valois,FR,Europe/Paris,49.231235,2.8864694
1162,Vaumoise,FR,Europe/Paris,49.2339406,2.9885685
1163,Villers-Cotterets,FR,Europe/Paris,49.25026,3.0937
1164,Longpont,FR,Europe/Paris,49.2726851,3.2301676
1165,Vierzy,FR,Europe/Paris,49.2910309,3.2773026
1166,Crouy,FR,Europe/Paris,49.4037093,3.3569138
1167,Margival,FR,Europe/Paris,49.4393862,3.4027491
1168,Jaux,FR,Europe/Paris,49.3868029,2.777316
1173,Choisy-au-Bac,FR,Europe/Paris,49.437771,2.877388
1175,Esches,FR,Europe/Paris,49.2125205,2.1708125
1176,Vineuil-St-Firmin,FR,Europe/Paris,49.19993392,2.491235733
1177,Courteuil,FR,Europe/Paris,49.2,2.533333
1178,St-Nicolas-Aumont,FR,Europe/Paris,49.202097,2.549574
1179,Cannes,FR,Europe/Paris,43.55,7.016667
1180,Cannes,FR,Europe/Paris,43.553839,7.019682
1181,Cannes—La Bocca,FR,Europe/Paris,43.548787,6.986601
1182,St-Jean-le-Centenier,FR,Europe/Paris,44.583333,4.533333
1183,Cholet,FR,Europe/Paris,47.065698,-0.869583
1185,Longueil-Annel,FR,Europe/Paris,49.4672441,2.8634086
1187,Corcy,FR,Europe/Paris,49.2550929,3.2157221
1193,Clermont-Ferrand,FR,Europe/Paris,45.778945,3.100543
1198,Conflans—Jarny,FR,Europe/Paris,49.1662895,5.8681853
1205,Laigneville,FR,Europe/Paris,49.29276,2.44894
1206,Caen,FR,Europe/Paris,49.176354,-0.347613
1207,Liancourt-Rantigny,FR,Europe/Paris,49.32471,2.44532
1213,Orry-la-Ville—Coye,FR,Europe/Paris,49.13895,2.49
1215,Longueil-Ste-Marie,FR,Europe/Paris,49.3425377,2.7175537
1216,Chevrières,FR,Europe/Paris,49.3373064,2.6828025
1217,Pont-Ste-Maxence,FR,Europe/Paris,49.30974,2.60289
1219,Rieux-Angicourt,FR,Europe/Paris,49.29866,2.5214
1221,Villers-St-Paul,FR,Europe/Paris,49.2825762,2.4899067
1239,Chagny,FR,Europe/Paris,46.907269,4.749682
1243,Montataire,FR,Europe/Paris,49.2510365,2.4362155
1250,Bornel—Belle-Église,FR,Europe/Paris,49.19471,2.20717
1251,Chaulnes,FR,Europe/Paris,49.8076201,2.8011421
1252,Chambly,FR,Europe/Paris,49.16362,2.24048
1253,Le Meux-la-Croix-St-Ouen,FR,Europe/Paris,49.3594029,2.7532645
1254,Thourotte,FR,Europe/Paris,49.4760722,2.8830021
1256,Ribécourt,FR,Europe/Paris,49.50633,2.92714
1257,Châteauroux,FR,Europe/Paris,46.809737,1.699536
1258,Ourscamps,FR,Europe/Paris,49.5341405,2.9540017
1259,Noyon,FR,Europe/Paris,49.57736,3.00641
1261,Avilly—St-Léonard,FR,Europe/Paris,49.2,2.533333
1262,Plainval,FR,Europe/Paris,49.533333,2.45
1263,Domfront Domélien,FR,Europe/Paris,49.603052,2.527254
1264,Bergues,FR,Europe/Paris,50.96901,2.42574
1265,Esquelbecq,FR,Europe/Paris,50.8894369,2.4121536
1266,Arnèke,FR,Europe/Paris,50.831522,2.4083063
1267,Cassel,FR,Europe/Paris,50.7875916,2.4599722
1268,Gravelines,FR,Europe/Paris,50.978736,2.1232852
1269,Bourbourg,FR,Europe/Paris,50.952267,2.1942305
1270,Grande-Synthe,FR,Europe/Paris,51.0026884,2.3133547
1271,Courghain,FR,Europe/Paris,50.99702883,2.29418993
1272,Pont-d’Ardres,FR,Europe/Paris,50.8920781,1.9712144
1273,Audruicq,FR,Europe/Paris,50.87567,2.07636
1274,Watten-Éperlecques,FR,Europe/Paris,50.8254043,2.2079599
1275,Renescure,FR,Europe/Paris,50.732006,2.3713644
1276,Ebblinghem,FR,Europe/Paris,50.7306459,2.409148
1281,Hellemmes,FR,Europe/Paris,50.6226402,3.1149328
1282,Loos-les-Lille,FR,Europe/Paris,50.6128165,3.0170581
1283,Steenwerck,FR,Europe/Paris,50.713459,2.7855769
1284,Bailleul,FR,Europe/Paris,50.72916,2.73445
1285,Strazeele,FR,Europe/Paris,50.713492,2.6312181
1286,Wambrechies,FR,Europe/Paris,50.6812648,3.0402974
1287,Quesnoy-sur-Deûle,FR,Europe/Paris,50.7081361,2.9952832
1288,Comines,FR,Europe/Paris,50.7608973,3.0096253
1289,Pérenchies,FR,Europe/Paris,50.66697,2.97729
1290,Santes,FR,Europe/Paris,50.5920123,2.961977
1291,Wavrin,FR,Europe/Paris,50.57443,2.93672
1292,La Fontaine,FR,Europe/Paris,50.5661459,2.9261079
1295,Phalempin,FR,Europe/Paris,50.5154,3.0199
1296,Wattignies,FR,Europe/Paris,50.5793139,3.051975
1297,Ronchin,FR,Europe/Paris,50.6045664,3.0783734
1298,Rosult,FR,Europe/Paris,50.4563667,3.3490115
1299,Landas,FR,Europe/Paris,50.4687775,3.290568
1301,Templeuve,FR,Europe/Paris,50.52863,3.17559
1302,Fretin,FR,Europe/Paris,50.5599254,3.1495133
1303,Tressin,FR,Europe/Paris,50.6118114,3.1895634
1304,Cysoing,FR,Europe/Paris,50.5620393,3.2098913
1305,Genech,FR,Europe/Paris,50.5306894,3.2205033
1306,Pont-de-Bois,FR,Europe/Paris,50.62403,3.13026
1307,Lesquin,FR,Europe/Paris,50.59068,3.11771
1308,Annappes,FR,Europe/Paris,50.6227708,3.1475351
1309,Baisieux,FR,Europe/Paris,50.61845,3.2347796
1314,Lezennes,FR,Europe/Paris,50.6205699,3.0986481
1315,Mont-de-Terre,FR,Europe/Paris,50.6176672,3.0966031
1316,Chambourg,FR,Europe/Paris,47.183333,0.966667
1317,Chambourg,FR,Europe/Paris,47.1821629,0.9648363
1318,Nieppe,FR,Europe/Paris,50.6966975,2.8289655
1319,Marquette,FR,Europe/Paris,50.6724025,3.0510262
1320,Deûlémont,FR,Europe/Paris,50.7159172,2.9933077
1321,Ste-Marguerite,FR,Europe/Paris,50.7403764,3.0092045
1322,Clisson,FR,Europe/Paris,47.086142,-1.286172
1323,Anstaing,FR,Europe/Paris,50.6040201,3.1933039
1324,Bouvines,FR,Europe/Paris,50.5737864,3.2021971
1325,Cobrieux,FR,Europe/Paris,50.5402798,3.2191247
1326,Lille Porte de Douai,FR,Europe/Paris,50.6119054,3.075837
1328,Ennevelin,FR,Europe/Paris,50.5492981,3.1586612
1329,Challans,FR,Europe/Paris,46.843962,-1.871879
1330,Nortkerque,FR,Europe/Paris,50.8829544,2.0231501
1331,Ruminghem,FR,Europe/Paris,50.8620636,2.1576706
1332,Casino—Lacroix-Laval,FR,Europe/Paris,45.7878115,4.7309383
1335,Recquignies,FR,Europe/Paris,50.2840466,4.0445029
1337,Anor,FR,Europe/Paris,49.984892,4.0929803
1338,Charmes-sur-Rhône,FR,Europe/Paris,44.866667,4.833333
1339,Chambéry Challes-les-Eaux,FR,Europe/Paris,45.571302,5.919547
1340,Le Cateau,FR,Europe/Paris,50.0914606,3.5400454
1341,Louvroil,FR,Europe/Paris,50.2683469,3.9535768
1342,Hautmont,FR,Europe/Paris,50.25398,3.91522
1343,Landrecies,FR,Europe/Paris,50.1283138,3.681997
1344,Sains-du-Nord,FR,Europe/Paris,50.0889485,4.0016955
1345,Avesnelles,FR,Europe/Paris,50.1185513,3.9485876
1346,Avesnes,FR,Europe/Paris,50.12674,3.93295
1347,Dompierre,FR,Europe/Paris,50.146144,3.871144
1348,Velle-le-Châtel,FR,Europe/Paris,47.602035,6.047214
1349,Colmar,FR,Europe/Paris,48.083333,7.366667
1350,Leval,FR,Europe/Paris,50.1845311,3.8366811
1351,Berlaimont,FR,Europe/Paris,50.1980095,3.8105316
1352,Le Quesnoy,FR,Europe/Paris,50.25021,3.64552
1355,Marle-sur-Serre,FR,Europe/Paris,49.747192,3.7695801
1356,Vervins,FR,Europe/Paris,49.8299236,3.8936313
1357,Origny-en-Thiérache,FR,Europe/Paris,49.8906693,4.0241558
1358,Crépy-Couvron,FR,Europe/Paris,49.6233401,3.5167165
1359,Cognac,FR,Europe/Paris,45.684682,-0.326112
1360,Clacy-Mons,FR,Europe/Paris,49.5439229,3.5766816
1361,Bohain,FR,Europe/Paris,49.9884143,3.4431289
1362,Fresnoy-le-Grand,FR,Europe/Paris,49.9501964,3.43268
1363,Athiès-sous-Laon,FR,Europe/Paris,49.610126,3.610166
1364,Samoussy,FR,Europe/Paris,49.583932,3.730954
1366,Bucy-Les-Pierrepont,FR,Europe/Paris,49.645058,3.898882
1367,Clermont-lès-Fermes,FR,Europe/Paris,49.666138,3.935162
1368,Montcornet,FR,Europe/Paris,49.694508,4.030754
1369,Rozoy-sur-Serre Place Neuville,FR,Europe/Paris,49.708792,4.123289
1371,Montescourt,FR,Europe/Paris,49.7380842,3.2519756
1372,Appilly,FR,Europe/Paris,49.5808826,3.1221903
1373,Anizy-Pinon,FR,Europe/Paris,49.4960073,3.4487637
1374,Versigny,FR,Europe/Paris,49.6574494,3.4335692
1375,Chauny,FR,Europe/Paris,49.61119,3.22354
1377,La Fère,FR,Europe/Paris,49.65802,3.36981
1378,Flavy-le-Martel,FR,Europe/Paris,49.7187375,3.1905076
1380,Collonges—Fontaines,FR,Europe/Paris,45.8291102,4.8466136
1382,Viry-Noureuil,FR,Europe/Paris,49.6274493,3.2503611
1384,La Bouteille,FR,Europe/Paris,49.8596168,3.9817635
1385,La Neuville-sous-Laon,FR,Europe/Paris,49.57082365,3.59687984
1386,Verneuil-sur-Serre,FR,Europe/Paris,49.6486805,3.6677085
1387,Dercy-Froidmont,FR,Europe/Paris,49.7025404,3.6918473
1389,Voyenne,FR,Europe/Paris,49.7260708,3.7202555
1391,Coutras,FR,Europe/Paris,45.03661,-0.13169
1392,Gizy,FR,Europe/Paris,49.597092,3.770777
1393,Chivres-en-Laonnois,FR,Europe/Paris,49.632761,3.843346
1394,Chaourse,FR,Europe/Paris,49.70405588,3.998165131
1395,Magny,FR,Europe/Paris,49.7177,4.059
1396,Chéry-les-Rozoy Place de l’Église,FR,Europe/Paris,49.719993,4.091152
1398,Le Fréty St-Gorgon,FR,Europe/Paris,49.733333,4.283333
1399,La Ferée,FR,Europe/Paris,49.75,4.3
1400,Mainbressy,FR,Europe/Paris,49.7,4.216667
1401,Vauxaillon,FR,Europe/Paris,49.4741418,3.4096166
1402,Barenton-Bugny,FR,Europe/Paris,49.6307907,3.6559914
1403,Les Bons-Pères,FR,Europe/Paris,50.2798638,4.010967
1404,Hachette,FR,Europe/Paris,50.1582852,3.7434526
1405,St-Hilaire,FR,Europe/Paris,50.1319709,3.9140099
1409,Chaulnes Centre,FR,Europe/Paris,49.817786,2.80529
1410,Miannay,FR,Europe/Paris,50.1,1.716667
1412,Brunvillers-La-Motte,FR,Europe/Paris,49.545224,2.471098
1413,Crèvecœur-le-Petit,FR,Europe/Paris,49.583333,2.5
1414,Goyencourt,FR,Europe/Paris,49.716667,2.766667
1415,Royaucourt,FR,Europe/Paris,49.6,2.533333
1416,Ste-Geneviève,FR,Europe/Paris,49.71968,4.07414
1417,Calais,FR,Europe/Paris,50.95345263,1.850595474
1419,Calais Fréthun,FR,Europe/Paris,50.902585,1.811286
1420,Villers-Carbonnel,FR,Europe/Paris,49.872027,2.893357
1421,Guer—Coëtquidan,FR,Europe/Paris,47.984355,-2.176522
1422,Longueau,FR,Europe/Paris,49.86344,2.35215
1423,Corbie,FR,Europe/Paris,49.9116183,2.4996846
1424,Méricourt-Ribemont,FR,Europe/Paris,49.9556384,2.5726254
1425,Albert,FR,Europe/Paris,50.00546,2.64453
1426,Picquigny,FR,Europe/Paris,49.9461557,2.1432765
1427,Hangest,FR,Europe/Paris,49.9822011,2.0661412
1428,Longpré-les-Corps-Saints,FR,Europe/Paris,50.01128,2.00277
1429,Pont-Remy,FR,Europe/Paris,50.0472341,1.8988404
1430,La Faloise,FR,Europe/Paris,49.696527,2.3485813
1431,Breteuil Embranchement,FR,Europe/Paris,49.626389,2.3845164
1432,Gannes,FR,Europe/Paris,49.5723315,2.4370074
1433,St-Rémy-en-l’Eau,FR,Europe/Paris,49.4681726,2.4258609
1434,Avrechy,FR,Europe/Paris,49.4446439,2.4179608
1435,Clermont-de-l’Oise,FR,Europe/Paris,49.38531,2.41767
1436,Moreuil,FR,Europe/Paris,49.77699,2.47582
1437,Hargicourt-Pierrepont,FR,Europe/Paris,49.7138593,2.5317673
1438,Tricot,FR,Europe/Paris,49.5619878,2.5815586
1439,St-Georges-les-Bains—Châteaurouge,FR,Europe/Paris,44.848585,4.826856
1440,Crest,FR,Europe/Paris,44.7301546,5.0160968
1441,Namps-Quevauvillers,FR,Europe/Paris,49.8082274,2.1053184
1442,Estrées-St-Denis,FR,Europe/Paris,49.4382161,2.642402
1443,Poix-de-Picardie,FR,Europe/Paris,49.7778561,1.9897767
1444,Remy,FR,Europe/Paris,49.4331452,2.7059434
1445,Roisel la Poste,FR,Europe/Paris,49.95,3.1
1446,Villers-Bretonneux,FR,Europe/Paris,49.86295,2.52141
1447,Marcelcave,FR,Europe/Paris,49.8532165,2.5819031
1449,Rosières (Somme),FR,Europe/Paris,49.82253,2.71141
1450,Nesle,FR,Europe/Paris,49.7639147,2.9089882
1451,Ham,FR,Europe/Paris,49.73985,3.07052
1452,Chaponost,FR,Europe/Paris,45.6984889,4.7643014
1453,Cramoisy,FR,Europe/Paris,49.256625,2.40489
1454,Cires-lès-Mello,FR,Europe/Paris,49.2717956,2.3601903
1455,Balagny-St-Epin,FR,Europe/Paris,49.2942448,2.3441977
1456,Mouy-Bury,FR,Europe/Paris,49.32045,2.32635
1457,Hermes-Berthecourt,FR,Europe/Paris,49.3544055,2.2416554
1458,Villers-St-Sépulcre,FR,Europe/Paris,49.3680779,2.2204386
1459,Rochy-Condé,FR,Europe/Paris,49.3986042,2.1727344
1460,Méru,FR,Europe/Paris,49.23233,2.13254
1461,Laboissière-le-Déluge,FR,Europe/Paris,49.2885368,2.1361486
1462,St-Sulpice-Auteuil,FR,Europe/Paris,49.3473824,2.1164133
1463,Herchies,FR,Europe/Paris,49.4879546,2.0109273
1464,Milly-sur-Thérain,FR,Europe/Paris,49.5035256,1.988233
1465,Creil,FR,Europe/Paris,49.263757,2.4692439
1466,St-Omer-en-Chaussée,FR,Europe/Paris,49.5306261,1.9970829
1467,Marseille-en-Beauvaisis,FR,Europe/Paris,49.5709066,1.9546349
1468,Grandvilliers,FR,Europe/Paris,49.6593779,1.9384836
1469,Feuquières-Broquiers,FR,Europe/Paris,49.6545751,1.8305169
1470,Aumale,FR,Europe/Paris,49.7650371,1.7560425
1471,Crasville-la-Mallet,FR,Europe/Paris,49.8,0.716667
1472,Lachapelle-sous-Aubenas,FR,Europe/Paris,44.58228,4.346167
1473,Blangy-sur-Bresle,FR,Europe/Paris,49.9326071,1.6259074
1474,Longroy—Gamaches,FR,Europe/Paris,49.9818917,1.5526598
1475,Chasse-sur-Rhône,FR,Europe/Paris,45.58237,4.794843
1476,Formerie,FR,Europe/Paris,49.6542178,1.7229081
1477,Fouilloy,FR,Europe/Paris,49.7366368,1.8260404
1478,Daours,FR,Europe/Paris,49.899267,2.4590533
1479,Maignelay Centre,FR,Europe/Paris,49.55,2.516667
1480,Dompierre Monument aux Morts,FR,Europe/Paris,49.596319,2.516817
1481,Marchelepot,FR,Europe/Paris,49.833333,2.866667
1482,Pont-les-Brie,FR,Europe/Paris,49.877555,2.921934
1483,Cartigny,FR,Europe/Paris,49.916667,3.016667
1484,Châteaubriant,FR,Europe/Paris,47.7175212,-1.3715152
1485,Hattencourt,FR,Europe/Paris,49.766667,2.783333
1486,Laboissière-Fescamps,FR,Europe/Paris,49.651216,2.671153
1487,Le Château-d’Oléron,FR,Europe/Paris,45.887415,-1.196149
1489,Chartres Gare Routière,FR,Europe/Paris,48.446853,1.489248
1491,Lamotte-Brebières,FR,Europe/Paris,49.88555533,2.397390604
1492,Heilly,FR,Europe/Paris,49.9435191,2.5396593
1493,Buire-sur-l’Ancre,FR,Europe/Paris,49.9647735,2.5981885
1494,Dreuil-lès-Amiens,FR,Europe/Paris,49.91444,2.23091
1497,Dommartin-Remiencourt,FR,Europe/Paris,49.7996523,2.3926625
1498,Thézy-Glimont,FR,Europe/Paris,49.8118528,2.435931
1499,Le Castelet,FR,Europe/Paris,42.740759,1.789734
1503,Châteauroux,FR,Europe/Paris,46.816667,1.7
1504,Châteauroux Gare Routière,FR,Europe/Paris,46.809088,1.688012
1505,Castelnaudary,FR,Europe/Paris,43.312292,1.95039
1506,Famechon,FR,Europe/Paris,49.75,2.05
1507,Wacquemoulin,FR,Europe/Paris,49.5032575,2.6116581
1508,Hyencourt-le-Grand,FR,Europe/Paris,49.816667,2.833333
1509,Eterpigny,FR,Europe/Paris,49.883333,2.916667
1510,Doingt,FR,Europe/Paris,49.916667,2.966667
1511,Tincourt-Boucly,FR,Europe/Paris,49.942071,3.014208
1512,Marquaix,FR,Europe/Paris,49.94459223,3.072556257
1513,Ire-le-Sec,FR,Europe/Paris,49.475576,5.386381
1516,Hallu,FR,Europe/Paris,49.783333,2.8
1517,Fresnoy-les-Roye,FR,Europe/Paris,49.733333,2.783333
1518,Laucourt,FR,Europe/Paris,49.666667,2.766667
1519,Dancourt,FR,Europe/Paris,49.666667,2.733333
1520,Châteaudun,FR,Europe/Paris,48.073463,1.338133
1521,Grivillers,FR,Europe/Paris,49.65,2.733333
1522,Faverolles,FR,Europe/Paris,49.633333,2.616667
1523,Heilles-Mouchy,FR,Europe/Paris,49.340531,2.2725858
1524,Montreuil-sur-Thérain,FR,Europe/Paris,49.38152,2.2002529
1525,Villers-sur-Thère,FR,Europe/Paris,49.414583,2.1355274
1529,Cluny,FR,Europe/Paris,46.43362015,4.662505388
1530,Culoz,FR,Europe/Paris,45.843264,5.778784
1531,Ste-Segrée,FR,Europe/Paris,49.75,1.916667
1532,Aubin-St-Vaast,FR,Europe/Paris,50.3946137,1.9705382
1534,Marville,FR,Europe/Paris,49.45,5.45
1535,Pihen,FR,Europe/Paris,50.8727855,1.7845632
1536,Le Haut-Banc,FR,Europe/Paris,50.8163364,1.7722209
1537,Feuquerolles,FR,Europe/Paris,50.0648443,1.605574
1538,Boulogne-sur-Mer Tintelleries,FR,Europe/Paris,50.72729,1.60904
1539,Rang-du-Fliers—Verton,FR,Europe/Paris,50.41579,1.64805
1540,Dannes-Camiers,FR,Europe/Paris,50.5759062,1.614825
1541,Neufchâtel-Hardelot,FR,Europe/Paris,50.62364,1.643115
1542,Pont-de-Briques,FR,Europe/Paris,50.6828164,1.6268038
1543,Wimille—Wimereux,FR,Europe/Paris,50.7638456,1.6137455
1545,Montreuil-sur-Mer,FR,Europe/Paris,50.4661948,1.7691662
1546,Brimeux,FR,Europe/Paris,50.4470409,1.8313826
1547,Beaurainville,FR,Europe/Paris,50.422891,1.895345
1548,Maresquel,FR,Europe/Paris,50.4078186,1.9313418
1549,Hesdin,FR,Europe/Paris,50.378286,2.0351881
1550,Auchy-lès-Hesdin,FR,Europe/Paris,50.3963631,2.1022448
1551,Blangy-sur-Ternoise,FR,Europe/Paris,50.424669,2.1721585
1552,Anvin,FR,Europe/Paris,50.446845,2.25494
1553,Caffiers,FR,Europe/Paris,50.8500679,1.8120345
1554,Marquise-Rinxent,FR,Europe/Paris,50.8056635,1.72988
1555,Noyelles-sur-Mer,FR,Europe/Paris,50.1875408,1.7045772
1557,Clermont-Ferrand,FR,Europe/Paris,45.783333,3.083333
1558,Clermont-Ferrand la Pardieu,FR,Europe/Paris,45.766947,3.134163
1559,Clermont-Ferrand la Rotonde,FR,Europe/Paris,45.7680954,3.0909704
1560,Quesnoy-le-Montant,FR,Europe/Paris,50.1089683,1.7024945
1561,Chepy-Valines,FR,Europe/Paris,50.0682219,1.6358275
1562,Feuquières-Fressenneville,FR,Europe/Paris,50.0632646,1.5890574
1563,Woincourt,FR,Europe/Paris,50.05867,1.537044
1564,Le Tréport,FR,Europe/Paris,50.0628592,1.3763738
1565,Beau-Marais,FR,Europe/Paris,50.945371,1.8983301
1567,Coux,FR,Europe/Paris,44.766667,4.616667
1568,Miraumont,FR,Europe/Paris,50.0958521,2.7344755
1569,Courcelles-le-Comte,FR,Europe/Paris,50.1694124,2.7880351
1570,Boisleux,FR,Europe/Paris,50.2104665,2.771855
1571,Rœux,FR,Europe/Paris,50.3034404,2.8950172
1572,Biache-St-Vaast,FR,Europe/Paris,50.3162525,2.9414975
1573,Bully-Grenay,FR,Europe/Paris,50.44843,2.73317
1574,Vitry-en-Artois,FR,Europe/Paris,50.3276092,2.9820833
1575,Mazingarbe,FR,Europe/Paris,50.4608957,2.7005447
1576,Nœux-les-Mines,FR,Europe/Paris,50.48297,2.67393
1577,Marœuil,FR,Europe/Paris,50.322603,2.6983279
1579,Frévin-Capelle,FR,Europe/Paris,50.3473177,2.6338262
1580,Chocques,FR,Europe/Paris,50.5382038,2.564749
1581,Lillers,FR,Europe/Paris,50.56163,2.47903
1582,Aubigny-en-Artois,FR,Europe/Paris,50.35297,2.5928045
1583,Savy-Berlette,FR,Europe/Paris,50.3538756,2.5577316
1584,Ham-en-Artois,FR,Europe/Paris,50.5900401,2.4657764
1585,Isbergues,FR,Europe/Paris,50.61399,2.46277
1586,Thiennes,FR,Europe/Paris,50.6523561,2.4729218
1587,Steenbecque,FR,Europe/Paris,50.6806568,2.510089
1588,Tincques,FR,Europe/Paris,50.35699,2.4980285
1590,Chéry Centre,FR,Europe/Paris,47.116667,2.05
1591,Beuvry,FR,Europe/Paris,50.5356021,2.6924093
1592,Cuinchy,FR,Europe/Paris,50.5219693,2.7473533
1593,La Bassée,FR,Europe/Paris,50.52799,2.80482
1594,Salomé,FR,Europe/Paris,50.5414529,2.8366078
1595,Marquillies,FR,Europe/Paris,50.5477246,2.8661707
1597,Farbus,FR,Europe/Paris,50.357641,2.8310408
1598,Vis-à-Marles,FR,Europe/Paris,50.5050115,2.5171137
1599,Calonne-Ricouart,FR,Europe/Paris,50.4827036,2.4812098
1600,Pernes-Camblain,FR,Europe/Paris,50.4802048,2.4310823
1601,Vimy,FR,Europe/Paris,50.3732316,2.8229549
1602,Avion,FR,Europe/Paris,50.40723,2.83365
1603,Bailleul-Sir-Berthoult,FR,Europe/Paris,50.3351257,2.8409809
1604,St-Amand-les-Eaux,FR,Europe/Paris,50.44331,3.41952
1605,Le Poirier Université,FR,Europe/Paris,50.33006,3.50273
1607,Wallers,FR,Europe/Paris,50.384611,3.3937454
1608,Raismes,FR,Europe/Paris,50.3902495,3.4788322
1609,Trith-St-Léger,FR,Europe/Paris,50.3318146,3.4893247
1610,Prouvy-Thiant,FR,Europe/Paris,50.3167933,3.4610838
1611,Denain,FR,Europe/Paris,50.3345415,3.388699
1612,Loos-en-Gohelle,FR,Europe/Paris,50.4378798,2.7933955
1613,Liévin,FR,Europe/Paris,50.434139,2.7716316
1614,Brebières-Sud,FR,Europe/Paris,50.33624,3.0142
1615,Corbehem,FR,Europe/Paris,50.3428545,3.0405375
1616,Pont-de-Sallaumines,FR,Europe/Paris,50.4157922,2.8632044
1617,Coron-de-Méricourt,FR,Europe/Paris,50.4150048,2.8854084
1618,Billy-Montigny,FR,Europe/Paris,50.41556,2.91206
1619,Hénin-Beaumont,FR,Europe/Paris,50.41706,2.95211
1620,Pont-de-la-Deule,FR,Europe/Paris,50.39813,3.08503
1621,Sallaumines,FR,Europe/Paris,50.4223266,2.8556769
1622,Leforest,FR,Europe/Paris,50.4278,3.05977
1623,Loison-sous-Lens,FR,Europe/Paris,50.4401891,2.8592403
1624,Pont-à-Vendin,FR,Europe/Paris,50.4713812,2.8751938
1625,Meurchin,FR,Europe/Paris,50.4970516,2.8930903
1626,Bauvin-Provin,FR,Europe/Paris,50.51168,2.9054
1627,Montigny-en-Ostrevent,FR,Europe/Paris,50.36151,3.18829
1628,Francheville,FR,Europe/Paris,45.7336473,4.7693729
1629,Sain-Bel,FR,Europe/Paris,45.811097,4.6012445
1630,Bouchain,FR,Europe/Paris,50.2780892,3.3319096
1631,Iwuy,FR,Europe/Paris,50.2255015,3.3298634
1632,Sin-le-Noble,FR,Europe/Paris,50.356612,3.112777
1633,Cantin,FR,Europe/Paris,50.3124545,3.121943
1634,Arleux,FR,Europe/Paris,50.2863204,3.1208073
1635,Brunémont,FR,Europe/Paris,50.2783197,3.1453509
1636,Aubigny-au-Bac,FR,Europe/Paris,50.2685315,3.158706
1638,Fressies,FR,Europe/Paris,50.25429162,3.193609715
1639,Darsac,FR,Europe/Paris,45.14211,3.7365537
1641,Escaudœuvres,FR,Europe/Paris,50.1918249,3.2754949
1642,Maurois,FR,Europe/Paris,50.0674506,3.4562554
1643,Bertry,FR,Europe/Paris,50.0911265,3.4489955
1644,Caudry,FR,Europe/Paris,50.11146,3.40983
1645,Montauban-de-Bretagne,FR,Europe/Paris,48.2,-2.05
1647,Cattenières,FR,Europe/Paris,50.1280738,3.3337877
1648,Wambaix,FR,Europe/Paris,50.1338767,3.3114074
1649,Cerans-Foulletourte,FR,Europe/Paris,47.823206,0.072291
1650,Droué Centre,FR,Europe/Paris,48.033333,1.083333
1651,Sarge-sur-Braye Centre,FR,Europe/Paris,47.916667,0.85
1652,Clermont-Créans Centre,FR,Europe/Paris,47.718308,-0.014591
1653,Echevannes,FR,Europe/Paris,47.533333,5.166667
1654,Oize Centre,FR,Europe/Paris,47.816667,0.1
1655,La Fontaine-St-Martin,FR,Europe/Paris,47.783333,0.05
1656,Savigny-sur-Braye Centre,FR,Europe/Paris,47.879225,0.809813
1657,St-Jean-de-la-Motte,FR,Europe/Paris,47.75,0.066667
1660,Guécélard,FR,Europe/Paris,47.883333,0.133333
1661,Parigné-le-Pôlin la Chenaie,FR,Europe/Paris,47.854416,0.100679
1678,Liancourt-St-Pierre,FR,Europe/Paris,49.2204964,1.905543
1681,Gisors,FR,Europe/Paris,49.28512,1.78455
1682,Sérifontaine,FR,Europe/Paris,49.3572878,1.7639818
1683,Amécourt-Talmontier,FR,Europe/Paris,49.386547,1.73952
1684,Neuf-Marché,FR,Europe/Paris,49.417847,1.723304
1685,Gournay—Ferrières,FR,Europe/Paris,49.4813674,1.7380891
1691,Conflans-Fin-d’Oise,FR,Europe/Paris,48.98931,2.07465
1701,Bréval,FR,Europe/Paris,48.94336,1.54191
1702,Dourdan,FR,Europe/Paris,48.533466,2.009643
1754,La Bonneville-sur-Iton,FR,Europe/Paris,48.9884615,1.035014
1755,Conches,FR,Europe/Paris,48.9623603,0.9378895
1756,Romilly-la-Puthenaye,FR,Europe/Paris,49.0039213,0.8548621
1757,Beaumont-le-Roger,FR,Europe/Paris,49.0741722,0.7727865
1759,Couesmes Centre,FR,Europe/Paris,47.566667,0.35
1760,St-Aubin-le-Dépeint,FR,Europe/Paris,47.63562093,0.390079021
1762,Château-du-Loir Hôtel de Ville,FR,Europe/Paris,47.7,0.416667
1763,Marcilly-sur-Tille,FR,Europe/Paris,47.516667,5.133333
1764,Raze,FR,Europe/Paris,47.583333,6.016667
1765,Mauléon Brossardière,FR,Europe/Paris,46.923394,-0.744792
1778,Die,FR,Europe/Paris,44.7582549,5.3632053
1782,Dijon,FR,Europe/Paris,47.32337785,5.027124882
1783,Dijon Porte Neuve,FR,Europe/Paris,47.322806,5.054872
1787,Dinan,FR,Europe/Paris,48.456764,-2.053542
1804,St-Germain—St-Rémy,FR,Europe/Paris,48.7585,1.2572208
1807,Nonancourt,FR,Europe/Paris,48.7757257,1.1929162
1809,Tillières,FR,Europe/Paris,48.7608617,1.0545647
1810,Verneuil-sur-Avre,FR,Europe/Paris,48.7424857,0.9291925
1811,Bourth,FR,Europe/Paris,48.7658425,0.804747
1812,Longjumeau,FR,Europe/Paris,48.7020364,2.2943957
1816,Petit-Vaux,FR,Europe/Paris,48.675859,2.3339755
1818,Massy TGV,FR,Europe/Paris,48.725758,2.261254
1822,Épernon,FR,Europe/Paris,48.6052471,1.6812578
1823,Maintenon,FR,Europe/Paris,48.5854793,1.5920651
1824,St-Piat,FR,Europe/Paris,48.5429526,1.5904889
1825,Jouy,FR,Europe/Paris,48.5102582,1.5573972
1826,La Villette—St-Prest,FR,Europe/Paris,48.4827197,1.5228734
1827,Amilly—Ouerray,FR,Europe/Paris,48.4381825,1.3892882
1828,St-Aubin—St-Luperce,FR,Europe/Paris,48.4476422,1.3318387
1829,Courville-sur-Eure,FR,Europe/Paris,48.451236,1.234836
1830,Pontgouin,FR,Europe/Paris,48.477867,1.1414359
1831,La Loupe,FR,Europe/Paris,48.4737398,1.0109416
1832,Bretoncelles,FR,Europe/Paris,48.4326737,0.8923825
1833,Condé-sur-Huisne,FR,Europe/Paris,48.3834826,0.8487023
1834,Nogent-le-Rotrou,FR,Europe/Paris,48.3255926,0.8103045
1835,La Taye,FR,Europe/Paris,48.4077566,1.3734019
1836,Bailleau-le-Pin,FR,Europe/Paris,48.3668028,1.3248851
1837,Magny-Blandainville,FR,Europe/Paris,48.3342906,1.2811066
1838,Illiers-Combray,FR,Europe/Paris,48.303937,1.2448745
1839,Brou,FR,Europe/Paris,48.2157588,1.1606705
1840,Arrou,FR,Europe/Paris,48.0997945,1.1285567
1841,Courtalain—St-Pellerin,FR,Europe/Paris,48.0735988,1.1270043
1843,Neuville-sur-Sarthe,FR,Europe/Paris,48.0705577,0.1997294
1844,La Guierche,FR,Europe/Paris,48.1138773,0.1931016
1845,Dole,FR,Europe/Paris,47.1,5.5
1847,Montbizot,FR,Europe/Paris,48.151513,0.1908607
1848,Teillé,FR,Europe/Paris,48.1812341,0.1913397
1849,Vivoin—Beaumont,FR,Europe/Paris,48.2302093,0.1447829
1850,La Hutte—Coulombiers,FR,Europe/Paris,48.303495,0.1056788
1851,Choloy-Menillot,FR,Europe/Paris,48.666667,5.816667
1853,Domfront,FR,Europe/Paris,48.1076766,0.0262592
1854,Conlie,FR,Europe/Paris,48.1272909,-0.0113736
1855,Crissé,FR,Europe/Paris,48.1681334,-0.0659101
1856,Sillé-le-Guillaume,FR,Europe/Paris,48.1818735,-0.1289696
1857,Rouessé-Vassé,FR,Europe/Paris,48.1602933,-0.1995868
1858,Deols,FR,Europe/Paris,46.833333,1.7
1859,Champagné,FR,Europe/Paris,48.0197118,0.3352253
1860,St-Mars-la-Brière,FR,Europe/Paris,48.0285239,0.3656778
1861,Montfort-le-Gesnois,FR,Europe/Paris,48.0405657,0.4064237
1862,Connerre—Beillé,FR,Europe/Paris,48.0735,0.48687
1863,Sceaux—Boëssé,FR,Europe/Paris,48.1221004,0.5724063
1864,La Ferté-Bernard,FR,Europe/Paris,48.1864887,0.639711
1865,Le Theil—La Rouge,FR,Europe/Paris,48.2672964,0.6944581
1866,Voivres,FR,Europe/Paris,47.9304199,0.0853466
1867,La Suze,FR,Europe/Paris,47.8919891,0.0266367
1868,Noyen,FR,Europe/Paris,47.8744544,-0.0981755
1870,Neufchâteau Lycée Professionnel,FR,Europe/Paris,48.483333,5.85
1871,Buzy-Darmont,FR,Europe/Paris,49.166667,5.7
1872,La Flèche,FR,Europe/Paris,47.69680853,-0.069394112
1874,Laigné—St-Gervais,FR,Europe/Paris,47.8740074,0.2172097
1875,Écommoy,FR,Europe/Paris,47.8246286,0.2691867
1876,Aubigné-Racan,FR,Europe/Paris,47.686945,0.2657714
1877,Mayet,FR,Europe/Paris,47.7601465,0.2659384
1878,Vaas,FR,Europe/Paris,47.6707702,0.3165096
1879,Château-la-Vallière,FR,Europe/Paris,47.55,0.316667
1881,Mondoubleau,FR,Europe/Paris,47.98396,0.898777
1882,Étain Centre,FR,Europe/Paris,49.21359891,5.636265278
1886,Elbeuf—St-Aubin,FR,Europe/Paris,49.302766,1.00993
1887,Tourville,FR,Europe/Paris,49.3248177,1.098964
1888,St-Étienne-du-Rouvray,FR,Europe/Paris,49.3771553,1.1095673
1889,Sotteville,FR,Europe/Paris,49.4129479,1.102362
1891,Maromme,FR,Europe/Paris,49.479935,1.050485
1892,Barentin,FR,Europe/Paris,49.549123,0.953517
1893,Pavilly,FR,Europe/Paris,49.563897,0.950644
1895,Forges-les-Eaux,FR,Europe/Paris,49.61393558,1.553428173
1896,St-Martin-du-Vivier,FR,Europe/Paris,49.4704151,1.1615438
1897,Morgny,FR,Europe/Paris,49.5232183,1.2478526
1899,Longuerue—Vieux-Manoir,FR,Europe/Paris,49.5566781,1.2762275
1900,Monterolier—Buchy,FR,Europe/Paris,49.6031854,1.3347457
1901,Sommery,FR,Europe/Paris,49.6297244,1.4353726
1902,Grémonville,FR,Europe/Paris,49.666667,0.833333
1903,Doudeville,FR,Europe/Paris,49.716667,0.8
1904,Verdun-la-Tour-du-Champ,FR,Europe/Paris,49.171075,5.406993
1905,Ocqueville,FR,Europe/Paris,49.8,0.683333
1906,Néville,FR,Europe/Paris,49.816667,0.716667
1907,St-Valéry-en-Caux,FR,Europe/Paris,49.86182143,0.713231564
1908,Dolus-d’Oléron,FR,Europe/Paris,45.90923037,-1.263282895
1909,Montville,FR,Europe/Paris,49.551284,1.070046
1910,Clères,FR,Europe/Paris,49.598964,1.106184
1911,St-Laurent—Gainneville,FR,Europe/Paris,49.5285649,0.2522963
1912,Etainhus—St-Romain,FR,Europe/Paris,49.5612151,0.3310234
1913,Virville—Manneville,FR,Europe/Paris,49.5835958,0.3541609
1914,Bolbec—Nointot,FR,Europe/Paris,49.5914657,0.48482
1915,Foucart—Alvimare,FR,Europe/Paris,49.608289,0.5969601
1916,Dol-de-Bretagne,FR,Europe/Paris,48.54425,-1.750536
1917,Don-Sainghin,FR,Europe/Paris,50.55176,2.91458
1920,Fécamp,FR,Europe/Paris,49.759277,0.375287
1921,Dourges,FR,Europe/Paris,50.43192,2.98697
1922,Épouville,FR,Europe/Paris,49.563814,0.2236662
1923,Rolleville,FR,Europe/Paris,49.5820461,0.2157828
1924,Agen Dot,FR,Europe/Paris,44.2,0.633333
1925,Agen Cimetière,FR,Europe/Paris,44.2,0.633333
1926,Dieppe,FR,Europe/Paris,49.933333,1.083333
1928,Agen Magnolias,FR,Europe/Paris,44.2,0.633333
1929,Arques-la-Bataille,FR,Europe/Paris,49.883333,1.133333
1930,St-Vaast-d’Équiqueville,FR,Europe/Paris,49.816123,1.265887
1931,Neufchâtel-en-Bray,FR,Europe/Paris,49.733333,1.45
1932,Nesle—St-Saire,FR,Europe/Paris,49.692863,1.497764
1934,St-Aubin-sur-Scie,FR,Europe/Paris,49.8717479,1.0666642
1936,Longueville-sur-Scie,FR,Europe/Paris,49.7917558,1.1103434
1937,Auffay,FR,Europe/Paris,49.716044,1.098441
1938,St-Victor,FR,Europe/Paris,49.6770346,1.1097122
1939,Osmoy Carrefour,FR,Europe/Paris,49.8,1.316667
1940,Bourgtheroulde-Thuit-Hébert,FR,Europe/Paris,49.3174381,0.8383198
1941,Glos-Montfort,FR,Europe/Paris,49.2715983,0.6828396
1942,Brionne,FR,Europe/Paris,49.1964187,0.7115304
1943,Vernon—Giverny,FR,Europe/Paris,49.091336,1.47857
1944,Gaillon—Aubevoye,FR,Europe/Paris,49.174626,1.352461
1945,St-Pierre-du-Vauvray,FR,Europe/Paris,49.2339135,1.2248947
1946,Pont-de-l’Arche,FR,Europe/Paris,49.3170928,1.1596559
1948,Louviers,FR,Europe/Paris,49.21591517,1.177344918
1949,Rosny-sur-Seine,FR,Europe/Paris,48.997287,1.63009
1950,Bonnières,FR,Europe/Paris,49.038788,1.582205
1951,Bures-en-Bray Carrefour,FR,Europe/Paris,49.783333,1.333333
1952,Dampierre-St-Nicolas Carrefour,FR,Europe/Paris,49.866667,1.2
1953,Eragny—Bazincourt,FR,Europe/Paris,49.298749,1.78079
1954,Mesnières-en-Bray Centre,FR,Europe/Paris,49.766667,1.383333
1959,Dracy-St-Loup,FR,Europe/Paris,47.016667,4.333333
1961,Dreux Gare Routière,FR,Europe/Paris,48.733333,1.366667
1962,Bretteville—Norrey,FR,Europe/Paris,49.2034112,-0.5127396
1963,Audrieu,FR,Europe/Paris,49.2161315,-0.5960138
1964,Le Molay-Littry,FR,Europe/Paris,49.2493263,-0.8809741
1965,Dourdan,FR,Europe/Paris,48.533333,2.016667
1967,Frénouville—Cagny,FR,Europe/Paris,49.1411192,-0.2603256
1968,Moult—Argences,FR,Europe/Paris,49.1111851,-0.1864355
1969,St-Pierre-sur-Dives,FR,Europe/Paris,49.0231057,-0.0405855
1970,Coulibœuf,FR,Europe/Paris,48.9237487,-0.0984574
1971,St-Martin-Valmeroux,FR,Europe/Paris,45.116667,2.416667
1972,Le Grand-Jardin,FR,Europe/Paris,49.1505827,0.2271143
1973,Blonville-sur-Mer—Benerville,FR,Europe/Paris,49.3313919,0.0356856
1974,Villers-sur-Mer,FR,Europe/Paris,49.3159865,0.0099283
1975,Houlgate,FR,Europe/Paris,49.3000711,-0.0772276
1976,Écouché,FR,Europe/Paris,48.7151009,-0.1209574
1977,Nonant-le-Pin,FR,Europe/Paris,48.7037802,0.2194656
1978,Le Merlerault,FR,Europe/Paris,48.7024888,0.2832169
1979,Ste-Gauburge,FR,Europe/Paris,48.7172632,0.4281082
1980,Rai—Aube,FR,Europe/Paris,48.7437153,0.5536992
1981,L’Aigle,FR,Europe/Paris,48.766229,0.620014
1982,Sées,FR,Europe/Paris,48.5998998,0.1661851
1983,Coutances,FR,Europe/Paris,49.042928,-1.441726
1984,Carantilly—Marigny,FR,Europe/Paris,49.06786,-1.2445285
1986,Pont-Hébert,FR,Europe/Paris,49.1625444,-1.1266871
1987,Carentan,FR,Europe/Paris,49.302482,-1.244938
1989,Valognes,FR,Europe/Paris,49.505454,-1.47986
1990,Orval—Hyenville,FR,Europe/Paris,49.016667,-1.466667
1991,Quettreville-sur-Sienne,FR,Europe/Paris,48.966667,-1.466667
1992,St-Planchers,FR,Europe/Paris,48.816667,-1.516667
1993,Villedieu-les-Poêles,FR,Europe/Paris,48.8340495,-1.225559
1994,St-Aubin-des-Bois,FR,Europe/Paris,48.833333,-1.133333
1995,Mesnil-Clinchamps,FR,Europe/Paris,48.85,-0.983333
1996,Fromentel,FR,Europe/Paris,48.71,-0.270521
1997,Bellou-en-Houlme Centre,FR,Europe/Paris,48.690295,-0.442028
1998,Messei Centre,FR,Europe/Paris,48.711566,-0.537386
2000,Massy,FR,Europe/Paris,48.733333,2.283333
2002,Massy—Palaiseau,FR,Europe/Paris,48.7264211,2.2575281
2004,La Ferté-Macé,FR,Europe/Paris,48.589993,-0.358
2006,Avranches,FR,Europe/Paris,48.6902445,-1.3700755
2008,La Ferté-Macé,FR,Europe/Paris,48.589993,-0.358
2009,La Ferté-Macé Place Neustadt,FR,Europe/Paris,48.584205,-0.366759
2010,Incarville,FR,Europe/Paris,49.233333,1.183333
2011,Lonlay-le-Tesson,FR,Europe/Paris,48.643472,-0.353472
2012,Vern-sur-Seiche,FR,Europe/Paris,48.0469707,-1.5966524
2013,Bruz,FR,Europe/Paris,48.0286,-1.7518088
2014,Betton,FR,Europe/Paris,48.1814803,-1.6344745
2015,St-Jacques-de-la-Lande,FR,Europe/Paris,48.0670983,-1.7142367
2016,L’Hermitage—Mordelles,FR,Europe/Paris,48.123142,-1.8192987
2017,Montfort-sur-Meu,FR,Europe/Paris,48.138878,-1.949141
2018,Montauban-de-Bretagne,FR,Europe/Paris,48.190241,-2.052675
2019,La Brohinière,FR,Europe/Paris,48.2134717,-2.110452
2020,Breteil,FR,Europe/Paris,48.1405713,-1.8972095
2021,Laillé,FR,Europe/Paris,47.9717527,-1.7495654
2022,Guichen—Bourg-des-Comptes,FR,Europe/Paris,47.9350963,-1.7601845
2023,St-Senoux—Pléchâtel,FR,Europe/Paris,47.8977519,-1.7661904
2024,Pléchâtel,FR,Europe/Paris,47.8719509,-1.7763615
2025,Messac—Guipry,FR,Europe/Paris,47.82225,-1.81822
2026,Fougeray—Langon,FR,Europe/Paris,47.7297956,-1.8510921
2027,Beslé,FR,Europe/Paris,47.6988788,-1.8706374
2028,Massérac,FR,Europe/Paris,47.6745316,-1.9144441
2030,St-Armel,FR,Europe/Paris,48.014405,-1.5948867
2031,Corps-Nuds,FR,Europe/Paris,47.9851669,-1.5754724
2032,Janzé,FR,Europe/Paris,47.955364,-1.497538
2033,Le Theil-de-Bretagne,FR,Europe/Paris,47.918742,-1.4319925
2034,Retiers,FR,Europe/Paris,47.9132599,-1.3898439
2035,Martigné-Ferchaud,FR,Europe/Paris,47.8321302,-1.3137943
2037,Pontchaillou,FR,Europe/Paris,48.11918,-1.69107
2038,Chevaigné,FR,Europe/Paris,48.2089042,-1.6307622
2039,Les Lacs,FR,Europe/Paris,48.1094359,-1.3208165
2040,Châteaubourg,FR,Europe/Paris,48.106361,-1.405159
2041,Servon,FR,Europe/Paris,48.112224,-1.4667757
2042,Noyal—Acigné,FR,Europe/Paris,48.1187915,-1.5277646
2046,Quédillac,FR,Europe/Paris,48.2484804,-2.1452204
2047,Caulnes,FR,Europe/Paris,48.2844264,-2.155593
2048,Broons,FR,Europe/Paris,48.3332957,-2.2356578
2049,Plénée-Jugon,FR,Europe/Paris,48.376656,-2.3546108
2050,Plestan,FR,Europe/Paris,48.4256462,-2.4424607
2051,Yffiniac,FR,Europe/Paris,48.4702462,-2.6524629
2052,La Méaugon,FR,Europe/Paris,48.4996127,-2.8439358
2053,Plouvara—Plerneuf,FR,Europe/Paris,48.508585,-2.8925136
2054,Châtelaudren—Plouagat,FR,Europe/Paris,48.5332189,-2.9746782
2056,Belle-Isle—Bégard,FR,Europe/Paris,48.5935901,-3.3228532
2057,Fresne-St-Mamès,FR,Europe/Paris,47.55,5.866667
2058,Plounérin,FR,Europe/Paris,48.5816298,-3.5682311
2059,Landébia,FR,Europe/Paris,48.5074212,-2.3313716
2060,Plancoët,FR,Europe/Paris,48.5216785,-2.2289207
2061,St-Julien,FR,Europe/Paris,48.45,-2.816667
2062,Plaintel,FR,Europe/Paris,48.4,-2.816667
2063,Quintin,FR,Europe/Paris,48.4,-2.916667
2064,Dyo,FR,Europe/Paris,46.35,4.283333
2066,Plœuc—L’Hermitage,FR,Europe/Paris,48.327545,-2.825875
2068,La Motte,FR,Europe/Paris,48.23565744,-2.733428478
2069,Loudéac Centre,FR,Europe/Paris,48.18033789,-2.762718201
2070,Gourin,FR,Europe/Paris,48.133333,-3.6
2071,Carhaix,FR,Europe/Paris,48.2780022,-3.5622173
2073,Pont-Melvez,FR,Europe/Paris,48.4702228,-3.3114444
2074,Plougonver,FR,Europe/Paris,48.4584133,-3.3704584
2075,Callac,FR,Europe/Paris,48.4062201,-3.419782
2076,Le Pénity,FR,Europe/Paris,48.3646275,-3.4763815
2077,Carnoët—Locarn,FR,Europe/Paris,48.3405242,-3.4908822
2078,Coat-Guégan,FR,Europe/Paris,48.4803156,-3.2738023
2079,Les Mais,FR,Europe/Paris,48.4262577,-3.3828609
2080,Kerbiquet,FR,Europe/Paris,48.094051,-3.636451
2081,Port-de-Carhaix,FR,Europe/Paris,48.236602,-3.599568
2082,Motreff,FR,Europe/Paris,48.2,-3.55
2083,Gourland,FR,Europe/Paris,48.5609981,-3.1668191
2084,Trégonneau—Squiffiec,FR,Europe/Paris,48.6243578,-3.1742524
2085,Brélidy—Plouëc,FR,Europe/Paris,48.669204,-3.196269
2086,Lancerf,FR,Europe/Paris,48.761873,-3.1181396
2087,Paimpol,FR,Europe/Paris,48.77694,-3.0460958
2088,Frynaudour,FR,Europe/Paris,48.7275919,-3.1284527
2089,Dirinon,FR,Europe/Paris,48.3926343,-4.2855034
2091,Meuse TGV,FR,Europe/Paris,48.978549,5.270954
2092,Pont-de-Buis,FR,Europe/Paris,48.2544024,-4.0861227
2093,Châteaulin,FR,Europe/Paris,48.2016033,-4.094308
2094,Lorraine TGV,FR,Europe/Paris,48.947773,6.169838
2096,Le Juch,FR,Europe/Paris,48.066667,-4.25
2097,Bannalec,FR,Europe/Paris,47.9267473,-3.7065268
2099,Kerhuon,FR,Europe/Paris,48.4096627,-4.3882136
2100,La Forest,FR,Europe/Paris,48.4263093,-4.3074515
2101,La Roche-Maurice,FR,Europe/Paris,48.4740885,-4.2050964
2102,Landivisiau,FR,Europe/Paris,48.496002,-4.082181
2103,Guimiliau,FR,Europe/Paris,48.4852675,-3.9996163
2104,St-Thégonnec,FR,Europe/Paris,48.4942082,-3.9483116
2105,Pleyber-Christ,FR,Europe/Paris,48.5078255,-3.8825543
2107,Plouigneau,FR,Europe/Paris,48.5647064,-3.7100572
2109,Ernée,FR,Europe/Paris,48.297072,-0.933619
2111,Roscoff Port de Bloscon,FR,Europe/Paris,48.71912244,-3.967941999
2112,Henvic,FR,Europe/Paris,48.633333,-3.933333
2113,Plouenan—Kerlaudy,FR,Europe/Paris,48.643876,-3.971703
2114,St-Pol-de-Léon,FR,Europe/Paris,48.6768402,-3.98731
2115,Roscoff,FR,Europe/Paris,48.7207491,-3.9833434
2116,Kernevel,FR,Europe/Paris,47.95,-3.783333
2117,Scaër,FR,Europe/Paris,48.033333,-3.7
2118,St-Étienne,FR,Europe/Paris,45.4434823,4.39950943
2119,St-Étienne Bellevue,FR,Europe/Paris,45.417128,4.392734
2120,St-Étienne le Clapier,FR,Europe/Paris,45.4371122,4.3782267
2121,St-Étienne la Terrasse,FR,Europe/Paris,45.464843,4.379601
2122,St-Étienne Châteaucreux,FR,Europe/Paris,45.443366,4.399722
2123,St-Étienne Carnot,FR,Europe/Paris,45.446976,4.385317
2125,Guiscriff,FR,Europe/Paris,48.05,-3.65
2126,Roscoff,FR,Europe/Paris,48.723812,-3.987093
2127,Argol,FR,Europe/Paris,48.24601115,-4.316833019
2128,Telgruc,FR,Europe/Paris,48.2314339,-4.355092049
2129,Tal-Ar-Groas,FR,Europe/Paris,48.24838671,-4.418676496
2130,Crozon—Morgat,FR,Europe/Paris,48.24792946,-4.492850304
2131,Camaret-sur-Mer,FR,Europe/Paris,48.274968,-4.596148
2132,Echirolles,FR,Europe/Paris,45.153022,5.718943
2133,Landaul—Mendon,FR,Europe/Paris,47.7359877,-3.0860172
2134,Landevant,FR,Europe/Paris,47.759578,-3.1251313
2135,Brandérion,FR,Europe/Paris,47.7823179,-3.1940402
2136,Hennebont,FR,Europe/Paris,47.7990019,-3.2857467
2137,Gestel,FR,Europe/Paris,47.8029905,-3.4431341
2138,Quimperlé,FR,Europe/Paris,47.869375,-3.552693
2139,Belz—Ploemel,FR,Europe/Paris,47.652466,-3.0721919
2140,Penthièvre,FR,Europe/Paris,47.5580254,-3.1330754
2141,Kerhostin,FR,Europe/Paris,47.5369524,-3.1363795
2142,Quiberon,FR,Europe/Paris,47.4852978,-3.1181869
2143,Pontivy,FR,Europe/Paris,48.06192305,-2.965782881
2144,St-Gérand,FR,Europe/Paris,48.1,-2.883333
2145,Ste-Anne-d’Auray,FR,Europe/Paris,47.6785805,-2.96048
2146,Questembert,FR,Europe/Paris,47.6831803,-2.4496002
2147,Malansac,FR,Europe/Paris,47.6756185,-2.2961796
2148,Séverac,FR,Europe/Paris,47.5498647,-2.072707
2149,St-Gildas-des-Bois,FR,Europe/Paris,47.516614,-2.0438923
2150,Dréfféac,FR,Europe/Paris,47.4817568,-2.0503661
2151,St-Germain-sur-Ille,FR,Europe/Paris,48.2394802,-1.6541804
2152,St-Médard-sur-Ille,FR,Europe/Paris,48.2742219,-1.6674886
2153,Montreuil-sur-Ille,FR,Europe/Paris,48.307292,-1.674155
2154,Dingé,FR,Europe/Paris,48.3507382,-1.6859729
2155,Combourg,FR,Europe/Paris,48.41609,-1.72792
2156,Bonnemain,FR,Europe/Paris,48.4764049,-1.7654125
2157,La Fresnais,FR,Europe/Paris,48.593655,-1.8432199
2158,La Gouesnière—Cancale,FR,Europe/Paris,48.6144207,-1.9058105
2159,Plerguer,FR,Europe/Paris,48.5314637,-1.8505895
2160,Miniac,FR,Europe/Paris,48.5315134,-1.914787
2161,Pleudihen,FR,Europe/Paris,48.4993822,-1.9617515
2162,La Hisse,FR,Europe/Paris,48.4961248,-2.0036608
2163,Corseul—Languenan,FR,Europe/Paris,48.4960574,-2.1414331
2164,Laval Centre,FR,Europe/Paris,48.07048017,-0.771392584
2165,Montsurs,FR,Europe/Paris,48.14149,-0.5506416
2166,Neau,FR,Europe/Paris,48.1574807,-0.4766725
2167,Évron,FR,Europe/Paris,48.155501,-0.397338
2168,Voutré,FR,Europe/Paris,48.1340521,-0.2921804
2169,Martigné-sur-mayenne Centre,FR,Europe/Paris,48.2,-0.666667
2170,Commer Centre,FR,Europe/Paris,48.233333,-0.616667
2171,St-Fraimbault-de-Prières Centre,FR,Europe/Paris,48.35,-0.583333
2172,Ambrières,FR,Europe/Paris,48.4,-0.633333
2173,Le Genest,FR,Europe/Paris,48.0967372,-0.8858084
2174,Port-Brillet,FR,Europe/Paris,48.1106724,-0.9740682
2175,St-Pierre-la-Cour,FR,Europe/Paris,48.1135968,-1.0252972
2178,Bourgneuf-en-Retz Ecole,FR,Europe/Paris,47.04216,-1.94913
2179,Chantenay,FR,Europe/Paris,47.1971227,-1.5943634
2180,Basse-Indre—St-Herblain,FR,Europe/Paris,47.2040872,-1.6603088
2181,Thouaré,FR,Europe/Paris,47.2651143,-1.4409626
2182,Mauves-sur-Loire,FR,Europe/Paris,47.2930211,-1.3893042
2183,Le Cellier,FR,Europe/Paris,47.3135164,-1.3506694
2184,Boussay-la-Bruffière,FR,Europe/Paris,47.0505741,-1.1828046
2185,Oudon,FR,Europe/Paris,47.3433655,-1.291992
2186,Ancenis,FR,Europe/Paris,47.369334,-1.177763
2187,Bouaye,FR,Europe/Paris,47.1380806,-1.6810992
2188,Port-St-Père St-Mars,FR,Europe/Paris,47.1164915,-1.7393069
2189,Bourgneuf-en-Retz,FR,Europe/Paris,47.0469634,-1.9551942
2192,Pornic,FR,Europe/Paris,47.1145616,-2.0975565
2193,Bourgneuf-en-Retz,FR,Europe/Paris,47.05,-1.95
2194,Machecoul,FR,Europe/Paris,46.9905038,-1.8227524
2195,Vertou,FR,Europe/Paris,47.1861428,-1.4780052
2196,La Haie-Fouassière,FR,Europe/Paris,47.1615899,-1.392195
2197,Le Pallet,FR,Europe/Paris,47.143831,-1.346898
2198,Gorges,FR,Europe/Paris,47.1001487,-1.3058778
2199,Bergerac,FR,Europe/Paris,44.857061,0.489174
2200,Cugand,FR,Europe/Paris,47.0582602,-1.253301
2201,Montaigu,FR,Europe/Paris,46.983705,-1.316236
2202,La Croix-de-Méan,FR,Europe/Paris,47.300426,-2.1932575
2203,Donges,FR,Europe/Paris,47.3086552,-2.0719096
2204,Pornichet,FR,Europe/Paris,47.2705354,-2.3445765
2205,Le Pouliguen,FR,Europe/Paris,47.2825404,-2.4331446
2206,Batz-sur-Mer,FR,Europe/Paris,47.2809541,-2.4789866
2207,Le Croisic,FR,Europe/Paris,47.289836,-2.507442
2208,Couëron,FR,Europe/Paris,47.2220412,-1.7235014
2209,St-Étienne-de-Montluc,FR,Europe/Paris,47.2747167,-1.7857107
2210,Cordemais,FR,Europe/Paris,47.3021502,-1.8466771
2211,Besné—Pont-Château,FR,Europe/Paris,47.4,-2.083333
2212,Écouflant,FR,Europe/Paris,47.5039036,-0.5194782
2213,Le Vieux-Briollay,FR,Europe/Paris,47.5739696,-0.4829396
2214,Tiercé,FR,Europe/Paris,47.617532,-0.469347
2215,Etriché—Châteauneuf,FR,Europe/Paris,47.6567082,-0.4608993
2217,Morannes,FR,Europe/Paris,47.7390902,-0.4179693
2218,Chalonnes,FR,Europe/Paris,47.34306,-0.74306
2221,Chemillé,FR,Europe/Paris,47.217748,-0.731989
2222,Savennières-Béhuard,FR,Europe/Paris,47.3817332,-0.6540004
2224,Champtoce-sur-Loire,FR,Europe/Paris,47.4102457,-0.8685747
2225,Ingrandes-sur-Loire,FR,Europe/Paris,47.4056382,-0.9210198
2227,Varades—St-Florent-le-Vieil,FR,Europe/Paris,47.3744471,-1.019712
2228,Château-Gontier,FR,Europe/Paris,47.85,-0.95
2229,Segré,FR,Europe/Paris,47.7,-0.45
2231,L’Île-d’Elle,FR,Europe/Paris,46.323275,-0.941512
2232,Châtelaillon,FR,Europe/Paris,46.0783303,-1.0908909
2233,Tonnay,FR,Europe/Paris,45.9433989,-0.8978981
2234,Surgères,FR,Europe/Paris,46.113238,-0.762284
2235,Mauzé,FR,Europe/Paris,46.1995881,-0.6737264
2236,Prin-Deyrançon,FR,Europe/Paris,46.2190177,-0.6365007
2237,Épannes,FR,Europe/Paris,46.233333,-0.583333
2238,Fors,FR,Europe/Paris,46.2345203,-0.4069449
2239,Marigny,FR,Europe/Paris,46.1990832,-0.428404
2240,Beauvoir-sur-Niort,FR,Europe/Paris,46.1768857,-0.4687544
2241,Prissé-la-Charrière,FR,Europe/Paris,46.15277,-0.4936249
2242,La Crèche,FR,Europe/Paris,46.3604181,-0.2962081
2243,St-Maixent,FR,Europe/Paris,46.406607,-0.201073
2244,La Mothe-St-Héray,FR,Europe/Paris,46.3807592,-0.1298415
2245,Pamproux,FR,Europe/Paris,46.3996295,-0.051931
2246,Rouillé,FR,Europe/Paris,46.4190206,0.042169
2247,Lusignan,FR,Europe/Paris,46.4354949,0.116555
2249,Benet—Riche-Bonne,FR,Europe/Paris,46.373362,-0.592757
2250,St-Martin-de-Fraigneau,FR,Europe/Paris,46.433333,-0.75
2253,L’Herbergement—Les-Brouzils,FR,Europe/Paris,46.9069172,-1.3712431
2254,Belleville-sur-Vie,FR,Europe/Paris,46.788316,-1.4346673
2255,Versonnex,FR,Europe/Paris,46.30108002,6.09583497
2256,Prévessin Mairie,FR,Europe/Paris,46.25,6.083333
2259,Nalliers Centre,FR,Europe/Paris,46.466667,-1.033333
2260,La Chaize-le-Vicomte,FR,Europe/Paris,46.676779,-1.2820678
2261,Fougeré,FR,Europe/Paris,46.6653044,-1.2319718
2262,Bournezeau,FR,Europe/Paris,46.6518258,-1.1806169
2263,Chantonnay,FR,Europe/Paris,46.6898472,-1.0544144
2264,Les Clouzeaux,FR,Europe/Paris,46.616667,-1.516667
2265,La Mothe-Achard,FR,Europe/Paris,46.6068648,-1.6596359
2266,Olonne-sur-Mer,FR,Europe/Paris,46.5486605,-1.76738
2268,Torfou,FR,Europe/Paris,47.0331153,-1.1173797
2270,Noirterre,FR,Europe/Paris,46.866667,-0.4
2271,Cerizay,FR,Europe/Paris,46.8176878,-0.6689931
2273,Pouzauges,FR,Europe/Paris,46.7523536,-0.8146784
2275,Chavagnes-les-Redoux,FR,Europe/Paris,46.716667,-0.9
2278,Brion-près-Thouet,FR,Europe/Paris,47.05,-0.183333
2279,Montreuil-Bellay,FR,Europe/Paris,47.1254181,-0.1482834
2280,Eurville Mairie,FR,Europe/Paris,48.583333,5.033333
2282,Vivy Centre,FR,Europe/Paris,47.324763,-0.059086
2283,Vernantes Centre,FR,Europe/Paris,47.39358127,0.052533746
2286,Longue Centre,FR,Europe/Paris,47.383333,-0.116667
2287,Bauge,FR,Europe/Paris,47.55,-0.1
2288,La Bohalle,FR,Europe/Paris,47.4342356,-0.4000426
2289,Les Rosiers-sur-Loire,FR,Europe/Paris,47.3625386,-0.2205371
2290,La Ménitré,FR,Europe/Paris,47.397422,-0.275818
2291,St-Mathurin,FR,Europe/Paris,47.4122473,-0.3182267
2292,Chiche,FR,Europe/Paris,46.8,-0.366667
2293,Mouzeuil-St-Martin,FR,Europe/Paris,46.466667,-0.966667
2296,Bords,FR,Europe/Paris,45.8944625,-0.7985436
2297,St-Savinien-sur-Charente,FR,Europe/Paris,45.8759277,-0.6778775
2298,Taillebourg,FR,Europe/Paris,45.8305696,-0.6451123
2299,Pons,FR,Europe/Paris,45.5780767,-0.5389124
2300,Clion-sur-Seugne,FR,Europe/Paris,45.4783225,-0.502092
2301,Jonzac,FR,Europe/Paris,45.4387456,-0.44164
2302,Fontaines-d’Ozillac,FR,Europe/Paris,45.3872162,-0.3836092
2303,Montendre,FR,Europe/Paris,45.2805457,-0.3961726
2304,Bussac-Forêt,FR,Europe/Paris,45.211928,-0.3682457
2305,St-Mariens—St-Yzan,FR,Europe/Paris,45.139072,-0.3917824
2306,Cavignac,FR,Europe/Paris,45.105163,-0.382243
2307,Gauriaguet,FR,Europe/Paris,45.0542936,-0.3992689
2308,Aubie—St-Antoine,FR,Europe/Paris,45.0151419,-0.4198843
2309,St-André-de-Cubzac,FR,Europe/Paris,44.991255,-0.440479
2310,Villeneuve-la-Comtesse,FR,Europe/Paris,46.0986599,-0.5130717
2311,Cubzac-les-Ponts,FR,Europe/Paris,44.9729407,-0.4590937
2312,Nancy,FR,Europe/Paris,48.689861,6.174583
2313,La Grave-d’Ambarès,FR,Europe/Paris,44.9356421,-0.477021
2314,Ste-Eulalie—Carbon-Blanc,FR,Europe/Paris,44.8978327,-0.4939737
2315,Loulay,FR,Europe/Paris,46.0435165,-0.5017525
2316,St-Hilaire—Brizambourg,FR,Europe/Paris,45.85007,-0.5347155
2317,St-Jean-d’Angély,FR,Europe/Paris,45.9407739,-0.5097829
2318,Jarnac-Charente,FR,Europe/Paris,45.6711292,-0.1777613
2319,Châteauneuf-sur-Charente,FR,Europe/Paris,45.599836,-0.0502
2320,Barbézieux,FR,Europe/Paris,45.45,-0.133333
2321,Saujon,FR,Europe/Paris,45.6665019,-0.9300187
2324,L’Habitarelle,FR,Europe/Paris,44.573228,3.769473
2325,Larroque,FR,Europe/Paris,44.516667,1.95
2326,Asasp,FR,Europe/Paris,43.116667,-0.616667
2328,Bidos,FR,Europe/Paris,43.17892,-0.6069
2329,St-Pierre-du-Mont,FR,Europe/Paris,43.884532,-0.521851
2330,Baladou,FR,Europe/Paris,44.916667,1.566667
2331,Somport,FR,Europe/Paris,42.789201,-0.54631
2334,Ayron,FR,Europe/Paris,46.666667,0.066667
2335,Angerville,FR,Europe/Paris,48.316667,2
2339,Cercottes,FR,Europe/Paris,47.9861553,1.8849813
2340,Chevilly,FR,Europe/Paris,48.0266215,1.8793013
2341,Artenay,FR,Europe/Paris,48.0808761,1.8833705
2342,Château-Gaillard,FR,Europe/Paris,48.1416904,1.9128148
2343,Épinal,FR,Europe/Paris,48.178005,6.441787
2344,Toury,FR,Europe/Paris,48.193606,1.939565
2345,Boisseaux,FR,Europe/Paris,48.2566238,1.9727681
2346,Angerville,FR,Europe/Paris,48.3112062,2.0034931
2347,La Ferté-St-Aubin,FR,Europe/Paris,47.720975,1.93236
2348,Lamotte-Beuvron,FR,Europe/Paris,47.593898,2.022499
2349,Nouan-le-Fuzelier,FR,Europe/Paris,47.5337788,2.0330957
2351,Theillay,FR,Europe/Paris,47.3139904,2.0443867
2354,Epuisay,FR,Europe/Paris,47.9,0.933333
2355,Monnerville,FR,Europe/Paris,48.35,2.05
2358,Guillerval,FR,Europe/Paris,48.366667,2.1
2362,Monnerville,FR,Europe/Paris,48.3484915,2.0320595
2363,Guillerval,FR,Europe/Paris,48.3744455,2.0598748
2369,Brétigny,FR,Europe/Paris,48.606683,2.302378
2388,Auneau,FR,Europe/Paris,48.4458242,1.77998
2390,Voves,FR,Europe/Paris,48.2750095,1.6222874
2391,Bonneval,FR,Europe/Paris,48.1862958,1.3861845
2394,Err,FR,Europe/Paris,42.442777,2.0290375
2406,Vendôme—Villiers-sur-Loir,FR,Europe/Paris,47.821937,1.021143
2407,Montbazon,FR,Europe/Paris,47.2917191,0.7214769
2408,Veigné,FR,Europe/Paris,47.2915255,0.7348815
2409,Esvres-sur-Indre,FR,Europe/Paris,47.2841016,0.7816519
2410,Cormery,FR,Europe/Paris,47.26254,0.833953
2411,Courçay—Tauxigny,FR,Europe/Paris,47.2377076,0.867867
2412,Reignac,FR,Europe/Paris,47.2178494,0.9013322
2413,Loches,FR,Europe/Paris,47.130464,1.000467
2414,Perrusson,FR,Europe/Paris,47.1,1
2415,St-Jean-en-Touraine,FR,Europe/Paris,47.080912,1.021651
2416,Etaples—Le Touquet,FR,Europe/Paris,50.51686,1.64231
2417,St-Antoine-du-Rocher,FR,Europe/Paris,47.503839,0.6164676
2418,Neuillé-Pont-Pierre,FR,Europe/Paris,47.5580135,0.5649155
2419,St-Paterne,FR,Europe/Paris,47.6042003,0.4783289
2420,Ballan,FR,Europe/Paris,47.3369919,0.6188975
2421,Étang,FR,Europe/Paris,46.8679082,4.1838415
2422,Druye,FR,Europe/Paris,47.3070191,0.5354805
2423,Azay-le-Rideau,FR,Europe/Paris,47.2663383,0.4475388
2424,Rivarennes,FR,Europe/Paris,47.2677425,0.3618999
2425,Chinon,FR,Europe/Paris,47.163047,0.251538
2426,La Roche-Clermault,FR,Europe/Paris,47.15,0.2
2427,Étampes,FR,Europe/Paris,48.436661,2.159468
2428,Beuxes,FR,Europe/Paris,47.083333,0.183333
2429,Basses—Sammarçolles,FR,Europe/Paris,47.04147627,0.133370161
2430,Port-Boulet,FR,Europe/Paris,47.248836,0.155648
2431,La Chapelle-sur-Loire,FR,Europe/Paris,47.251227,0.2184812
2432,St-Patrice,FR,Europe/Paris,47.2855394,0.3096916
2433,Langeais,FR,Europe/Paris,47.324114,0.410557
2434,Cinq-Mars,FR,Europe/Paris,47.3452264,0.4604878
2435,Savonnières,FR,Europe/Paris,47.3605797,0.5441817
2436,St-Genouph,FR,Europe/Paris,47.3710109,0.5969502
2437,Chaingy-Fourneaux-Plage,FR,Europe/Paris,47.8770705,1.782422
2438,St-Ay,FR,Europe/Paris,47.863133,1.7499597
2439,Meung-sur-Loire,FR,Europe/Paris,47.829926,1.691928
2440,Baule,FR,Europe/Paris,47.8117535,1.668127
2441,Beaugency,FR,Europe/Paris,47.778365,1.625938
2442,Mer (Loir-et-Cher),FR,Europe/Paris,47.70586,1.506373
2443,Suèvres,FR,Europe/Paris,47.6802248,1.4540981
2444,Menars,FR,Europe/Paris,47.6450036,1.405617
2445,La Chaussée-St-Victor,FR,Europe/Paris,47.6127952,1.3537834
2446,Chouzy,FR,Europe/Paris,47.5203249,1.247846
2447,Onzain – Chaumont-sur-Loire,FR,Europe/Paris,47.492,1.18595
2448,Veuves—Monteaux,FR,Europe/Paris,47.4756722,1.1238749
2449,Limeray,FR,Europe/Paris,47.4502088,1.0499661
2450,Noizay,FR,Europe/Paris,47.4096869,0.8959456
2451,Veretz—Montlouis,FR,Europe/Paris,47.3715058,0.8199079
2452,Azay-sur-Cher,FR,Europe/Paris,47.3652695,0.8599885
2453,St-Martin-le-Beau,FR,Europe/Paris,47.3552058,0.9058418
2454,Bléré-la-Croix,FR,Europe/Paris,47.3377228,0.9877583
2455,Chenonceaux,FR,Europe/Paris,47.330554,1.0661
2456,Cloyes,FR,Europe/Paris,47.9921032,1.2433542
2457,Fréteval—Morée,FR,Europe/Paris,47.8919172,1.211813
2458,Pezou,FR,Europe/Paris,47.8673364,1.1408714
2459,St-Amand-de-Vendôme,FR,Europe/Paris,47.693141,1.0119896
2460,Château-Renault,FR,Europe/Paris,47.5877961,0.9015238
2461,Monnaie,FR,Europe/Paris,47.4987491,0.7932851
2462,Notre-Dame-d’Oé,FR,Europe/Paris,47.4595668,0.7070252
2463,Chissay-en-Touraine,FR,Europe/Paris,47.3349004,1.1333044
2464,Montrichard,FR,Europe/Paris,47.3437658,1.1717596
2465,St-Aignan—Noyers,FR,Europe/Paris,47.2869126,1.3838369
2466,Monts,FR,Europe/Paris,47.2818,0.65448
2467,Villeperdue,FR,Europe/Paris,47.2020438,0.6336449
2468,Ste-Maure—Noyant,FR,Europe/Paris,47.1112361,0.5769439
2469,Maillé,FR,Europe/Paris,47.0533855,0.5830236
2470,Port-de-Piles,FR,Europe/Paris,47.0102599,0.5989179
2471,Loudun,FR,Europe/Paris,47.01596813,0.083690286
2472,Arçay,FR,Europe/Paris,46.966667,0.016667
2473,Les Ormes-sur-Vienne,FR,Europe/Paris,46.9718269,0.6079476
2474,Dangé-St-Romain,FR,Europe/Paris,46.9378397,0.6087754
2475,Évreux,FR,Europe/Paris,49.018748,1.149629
2476,Ingrandes-sur-Vienne,FR,Europe/Paris,46.8746283,0.5691164
2477,Nerpuy,FR,Europe/Paris,46.7834177,0.5256884
2478,Naintré—Les Barres,FR,Europe/Paris,46.7595303,0.4963446
2479,La Tricherie,FR,Europe/Paris,46.7288206,0.4412021
2480,Dissay,FR,Europe/Paris,46.703544,0.4210161
2481,Pas-de-Jeu,FR,Europe/Paris,46.983333,-0.033333
2482,Jaunay-Clan,FR,Europe/Paris,46.682044,0.3816535
2483,Chasseneuil,FR,Europe/Paris,46.6517702,0.3730275
2486,Ligugé,FR,Europe/Paris,46.5203091,0.3331733
2487,Vivonne,FR,Europe/Paris,46.4266355,0.2653156
2488,Anché—Voulon,FR,Europe/Paris,46.3496187,0.2503424
2490,Épanvilliers,FR,Europe/Paris,46.2254951,0.2357576
2491,St-Saviol,FR,Europe/Paris,46.1470046,0.2179
2492,Montmorillon,FR,Europe/Paris,46.4174979,0.8737467
2493,Lathus,FR,Europe/Paris,46.3380917,0.965009
2494,Privas Hôpital Ste Marie,FR,Europe/Paris,44.733333,4.6
2497,Privas,FR,Europe/Paris,44.73465445,4.599838257
2498,Chalandray,FR,Europe/Paris,46.666667,0
2499,La Ferrière-en-Parthenay,FR,Europe/Paris,46.666667,-0.083333
2501,Mignaloux—Nouaillé,FR,Europe/Paris,46.5261427,0.4117391
